Time,header.stamp.nsecs,angular_velocity.x,angular_velocity.y,angular_velocity.z,linear_acceleration.x,linear_acceleration.y,linear_acceleration.z,header.seq,header.stamp.nsecs,pose.position.x,pose.position.y,pose.position.z,pose.orientation.x,pose.orientation.y,pose.orientation.z,pose.orientation.w
1719785815,527404987,0.003195793,0.002130529,-0.002130529,0.239418945,-0.004788379,9.787446484,3943.2,1719785814,-2.04222901,-1.932825997,0.136673759,0.013614532,0.002353486,0.725956191,0.687602149
1719785815,529827082,0.002130529,0.002130529,-0.003195793,0.234630566,-0.004788379,9.787446484,3943.4,1719785814,-2.042228694,-1.932826526,0.136679445,0.013615385,0.002353278,0.725954195,0.68760424
1719785815,532367800,0,0.002130529,-0.004261058,0.234630566,0,9.782658105,3943.6,1719785814,-2.042228379,-1.932827055,0.136685132,0.013616237,0.002353071,0.7259522,0.68760633
1719785815,534829190,0.003195793,0.001065264,-0.004261058,0.234630566,0,9.782658105,3943.8,1719785814,-2.042228063,-1.932827584,0.136690818,0.01361709,0.002352863,0.725950204,0.687608421
1719785815,537318484,0.004261058,0.001065264,-0.001065264,0.239418945,-0.004788379,9.787446484,3944,1719785814,-2.042227748,-1.932828113,0.136696504,0.013617943,0.002352655,0.725948208,0.687610512
1719785815,539820162,0,0.001065264,-0.001065264,0.239418945,-0.004788379,9.787446484,3944.2,1719785814,-2.042227852,-1.932826697,0.136694581,0.013620808,0.002346372,0.725947268,0.687611469
1719785815,542354511,0.001065264,0,0,0.244207324,-0.004788379,9.792234863,3944.4,1719785814,-2.042227956,-1.932825281,0.136692659,0.013623674,0.002340089,0.725946328,0.687612425
1719785815,542397199,0.003195793,0,-0.001065264,0.253784082,-0.004788379,9.801811621,3944.6,1719785814,-2.042228061,-1.932823864,0.136690736,0.013626539,0.002333805,0.725945389,0.687613382
1719785815,547359691,0.001065264,0.003195793,0,0.253784082,-0.009576758,9.8066,3944.8,1719785814,-2.042228165,-1.932822448,0.136688814,0.013629405,0.002327522,0.725944449,0.687614338
1719785815,547391370,0.003195793,0,-0.004261058,0.253784082,-0.009576758,9.8066,3945,1719785814,-2.042228269,-1.932821032,0.136686891,0.01363227,0.002321239,0.725943509,0.687615295
1719785815,549838585,0,0.004261058,-0.003195793,0.253784082,-0.014365137,9.8066,3945.2,1719785814,-2.042227485,-1.932818787,0.13668392,0.013639051,0.00232199,0.725945018,0.687613565
1719785815,554841077,0.003195793,0.001065264,-0.002130529,0.258572461,-0.009576758,9.811388379,3945.4,1719785814,-2.042226702,-1.932816541,0.136680949,0.013645833,0.002322741,0.725946527,0.687611835
1719785815,557352355,0.005326322,-0.001065264,-0.001065264,0.258572461,0,9.816176758,3945.6,1719785814,-2.042225918,-1.932814296,0.136677977,0.013652614,0.002323491,0.725948037,0.687610104
1719785815,557391394,0.004261058,0.002130529,-0.002130529,0.253784082,0,9.820965137,3945.8,1719785814,-2.042225135,-1.93281205,0.136675006,0.013659396,0.002324242,0.725949546,0.687608374
1719785815,559837873,0.002130529,0.003195793,-0.003195793,0.248995703,0,9.820965137,3946,1719785814,-2.042224351,-1.932809805,0.136672035,0.013666177,0.002324993,0.725951055,0.687606644
1719785815,564918667,0.003195793,0.002130529,-0.004261058,0.239418945,-0.004788379,9.816176758,3946.2,1719785814,-2.042223388,-1.932807886,0.136671058,0.013668319,0.00232619,0.725954325,0.687603144
1719785815,567336187,0.002130529,0.001065264,-0.004261058,0.234630566,-0.004788379,9.8066,3946.4,1719785814,-2.042222424,-1.932805967,0.136670082,0.013670461,0.002327387,0.725957596,0.687599645
1719785815,569867816,0.001065264,0.001065264,-0.004261058,0.239418945,-0.004788379,9.801811621,3946.6,1719785814,-2.042221461,-1.932804047,0.136669105,0.013672604,0.002328583,0.725960866,0.687596145
1719785815,572326007,0.003195793,-0.002130529,-0.002130529,0.244207324,-0.004788379,9.792234863,3946.8,1719785814,-2.042220497,-1.932802128,0.136668129,0.013674746,0.00232978,0.725964137,0.687592646
1719785815,574820709,0.001065264,0.001065264,-0.002130529,0.248995703,-0.009576758,9.792234863,3947,1719785814,-2.042219534,-1.932800209,0.136667152,0.013676888,0.002330977,0.725967407,0.687589146
1719785815,577318611,0.003195793,0.002130529,0,0.248995703,-0.009576758,9.792234863,3947.2,1719785814,-2.042219666,-1.932798883,0.136667772,0.013673887,0.002328769,0.725964037,0.687592771
1719785815,579843136,0.006391587,0.002130529,-0.003195793,0.248995703,-0.009576758,9.797023242,3947.4,1719785814,-2.042219798,-1.932797556,0.136668393,0.013670886,0.002326561,0.725960667,0.687596396
1719785815,582321679,0.002130529,0.002130529,-0.001065264,0.248995703,-0.009576758,9.797023242,3947.6,1719785814,-2.042219929,-1.93279623,0.136669013,0.013667886,0.002324352,0.725957296,0.687600022
1719785815,584846236,0.002130529,0.004261058,-0.003195793,0.248995703,-0.004788379,9.792234863,3947.8,1719785814,-2.042220061,-1.932794903,0.136669634,0.013664885,0.002322144,0.725953926,0.687603647
1719785815,587332170,0.003195793,0.002130529,-0.004261058,0.253784082,-0.004788379,9.792234863,3948,1719785814,-2.042220193,-1.932793577,0.136670254,0.013661884,0.002319936,0.725950556,0.687607272
1719785815,589945782,0.001065264,0,-0.001065264,0.253784082,-0.004788379,9.797023242,3948.2,1719785814,-2.042221622,-1.932792464,0.136673896,0.013661591,0.002320788,0.725950718,0.687607104
1719785815,592330790,0.003195793,0.001065264,-0.003195793,0.253784082,-0.004788379,9.801811621,3948.4,1719785814,-2.042223051,-1.93279135,0.136677538,0.013661298,0.00232164,0.72595088,0.687606936
1719785815,594843604,0.002130529,-0.001065264,-0.001065264,0.248995703,-0.004788379,9.801811621,3948.6,1719785814,-2.042224481,-1.932790237,0.136681181,0.013661006,0.002322492,0.725951041,0.687606769
1719785815,597339778,-0.001065264,0.001065264,-0.003195793,0.253784082,-0.004788379,9.8066,3948.8,1719785814,-2.04222591,-1.932789123,0.136684823,0.013660713,0.002323344,0.725951203,0.687606601
1719785815,599822608,-0.001065264,0.001065264,-0.002130529,0.253784082,-0.004788379,9.8066,3949,1719785814,-2.042227339,-1.93278801,0.136688465,0.01366042,0.002324196,0.725951365,0.687606433
1719785815,602327006,0.001065264,0.001065264,-0.001065264,0.248995703,0,9.8066,3949.2,1719785814,-2.042225747,-1.932791619,0.136692348,0.013660961,0.002321106,0.725952176,0.687605576
1719785815,604840171,0.001065264,0.003195793,-0.002130529,0.248995703,0.004788379,9.801811621,3949.4,1719785814,-2.042224154,-1.932795228,0.13669623,0.013661501,0.002318016,0.725952987,0.687604719
1719785815,607351993,0.001065264,0.001065264,-0.002130529,0.248995703,0.004788379,9.801811621,3949.6,1719785814,-2.042222562,-1.932798836,0.136700113,0.013662042,0.002314927,0.725953799,0.687603863
1719785815,607384056,0.002130529,0.003195793,-0.003195793,0.239418945,0.004788379,9.811388379,3949.8,1719785814,-2.042220969,-1.932802445,0.136703995,0.013662582,0.002311837,0.72595461,0.687603006
1719785815,612315797,0,0.002130529,-0.004261058,0.234630566,0.004788379,9.820965137,3950,1719785814,-2.042219377,-1.932806054,0.136707878,0.013663123,0.002308747,0.725955421,0.687602149
1719785815,614833379,0,0.003195793,-0.003195793,0.234630566,0.009576758,9.825753516,3950.2,1719785814,-2.042220869,-1.932808444,0.136708142,0.013662907,0.002308506,0.725953005,0.687604705
1719785815,617342961,0.001065264,0.001065264,-0.003195793,0.239418945,0.009576758,9.830541895,3950.4,1719785814,-2.042222361,-1.932810835,0.136708407,0.013662691,0.002308266,0.725950588,0.687607261
1719785815,617373840,0.001065264,0.003195793,-0.001065264,0.239418945,0.009576758,9.830541895,3950.6,1719785814,-2.042223854,-1.932813225,0.136708671,0.013662476,0.002308025,0.725948172,0.687609818
1719785815,619830431,0.003195793,0.003195793,-0.003195793,0.239418945,0.004788379,9.825753516,3950.8,1719785814,-2.042225346,-1.932815616,0.136708936,0.01366226,0.002307785,0.725945755,0.687612374
1719785815,622317261,0.002130529,0.002130529,-0.002130529,0.239418945,0,9.820965137,3951,1719785814,-2.042226838,-1.932818006,0.1367092,0.013662044,0.002307544,0.725943339,0.68761493
1719785815,627335401,0.005326322,0.002130529,-0.003195793,0.234630566,-0.004788379,9.816176758,3951.2,1719785814,-2.042224256,-1.932816104,0.136706633,0.013657626,0.00230117,0.725940016,0.687618547
1719785815,629855766,0.002130529,0.002130529,-0.004261058,0.234630566,-0.004788379,9.811388379,3951.4,1719785814,-2.042221674,-1.932814202,0.136704066,0.013653209,0.002294795,0.725936693,0.687622164
1719785815,629997171,0.002130529,0.003195793,-0.004261058,0.239418945,0,9.811388379,3951.6,1719785814,-2.042219093,-1.932812299,0.136701498,0.013648791,0.002288421,0.725933371,0.687625781
1719785815,634838322,0.002130529,0.003195793,-0.004261058,0.248995703,0,9.811388379,3951.8,1719785814,-2.042216511,-1.932810397,0.136698931,0.013644374,0.002282046,0.725930048,0.687629398
1719785815,637314817,0.002130529,0.002130529,-0.005326322,0.253784082,0,9.811388379,3952,1719785814,-2.042213929,-1.932808495,0.136696364,0.013639956,0.002275672,0.725926725,0.687633015
1719785815,639837262,0.001065264,0.003195793,-0.003195793,0.253784082,-0.004788379,9.811388379,3952.2,1719785814,-2.042215615,-1.932803439,0.136693863,0.013647994,0.002281527,0.725929185,0.687630238
1719785815,642303613,0.003195793,0.001065264,-0.003195793,0.248995703,-0.004788379,9.811388379,3952.4,1719785814,-2.042217302,-1.932798384,0.136691362,0.013656031,0.002287382,0.725931646,0.687627461
1719785815,644836426,0.006391587,0.001065264,-0.002130529,0.248995703,-0.009576758,9.8066,3952.6,1719785814,-2.042218988,-1.932793328,0.13668886,0.013664069,0.002293238,0.725934106,0.687624685
1719785815,647319576,0.002130529,-0.001065264,-0.002130529,0.248995703,-0.014365137,9.811388379,3952.8,1719785814,-2.042220675,-1.932788273,0.136686359,0.013672106,0.002299093,0.725936567,0.687621908
1719785815,649829862,0.001065264,0,-0.002130529,0.248995703,-0.014365137,9.811388379,3953,1719785814,-2.042222361,-1.932783217,0.136683858,0.013680144,0.002304948,0.725939027,0.687619131
1719785815,652305300,0.003195793,0.001065264,-0.003195793,0.248995703,-0.009576758,9.811388379,3953.2,1719785814,-2.042222924,-1.932782944,0.136683543,0.013679713,0.002308479,0.725939453,0.687618678
1719785815,654832514,-0.001065264,0.001065264,-0.002130529,0.248995703,-0.009576758,9.811388379,3953.4,1719785814,-2.042223487,-1.932782671,0.136683228,0.013679281,0.00231201,0.725939879,0.687618225
1719785815,657306480,0.001065264,0.001065264,-0.002130529,0.248995703,-0.014365137,9.811388379,3953.6,1719785814,-2.042224049,-1.932782398,0.136682913,0.01367885,0.00231554,0.725940306,0.687617771
1719785815,659819326,0.001065264,0.004261058,-0.003195793,0.248995703,-0.014365137,9.8066,3953.8,1719785814,-2.042224612,-1.932782125,0.136682598,0.013678418,0.002319071,0.725940732,0.687617318
1719785815,662307852,0.002130529,0.003195793,-0.002130529,0.253784082,-0.014365137,9.801811621,3954,1719785814,-2.042225175,-1.932781852,0.136682283,0.013677987,0.002322602,0.725941158,0.687616865
1719785815,664852569,0,0.001065264,-0.003195793,0.258572461,-0.009576758,9.801811621,3954.2,1719785814,-2.042225521,-1.932786777,0.136684649,0.013675126,0.002317998,0.725940742,0.687617377
1719785815,667301608,0.001065264,0.004261058,-0.003195793,0.258572461,-0.009576758,9.797023242,3954.4,1719785814,-2.042225867,-1.932791701,0.136687015,0.013672264,0.002313394,0.725940326,0.687617889
1719785815,669842933,0.005326322,0.002130529,-0.004261058,0.258572461,-0.004788379,9.797023242,3954.6,1719785814,-2.042226214,-1.932796626,0.136689382,0.013669403,0.002308791,0.725939909,0.6876184
1719785815,672315331,0.002130529,0.001065264,-0.001065264,0.253784082,0,9.797023242,3954.8,1719785814,-2.04222656,-1.93280155,0.136691748,0.013666541,0.002304187,0.725939493,0.687618912
1719785815,672347587,0.002130529,0.002130529,-0.003195793,0.253784082,0,9.797023242,3955,1719785814,-2.042226906,-1.932806475,0.136694114,0.01366368,0.002299583,0.725939077,0.687619424
1719785815,677319519,0.002130529,0.003195793,-0.002130529,0.253784082,0,9.801811621,3955.2,1719785814,-2.042226311,-1.932811549,0.136695803,0.013669541,0.002307171,0.725939824,0.687618493
1719785815,677354462,0.004261058,0.003195793,-0.003195793,0.253784082,-0.004788379,9.801811621,3955.4,1719785814,-2.042225716,-1.932816623,0.136697493,0.013675403,0.002314759,0.725940571,0.687617562
1719785815,682339418,0.003195793,0,-0.002130529,0.244207324,-0.004788379,9.8066,3955.6,1719785814,-2.042225122,-1.932821698,0.136699182,0.013681264,0.002322348,0.725941319,0.687616631
1719785815,687315287,0.003195793,0.002130529,-0.004261058,0.239418945,-0.009576758,9.797023242,3955.8,1719785814,-2.042224527,-1.932826772,0.136700872,0.013687126,0.002329936,0.725942066,0.6876157
1719785815,687353206,0.003195793,0.002130529,-0.003195793,0.239418945,-0.009576758,9.797023242,3956,1719785814,-2.042223932,-1.932831846,0.136702561,0.013692987,0.002337524,0.725942813,0.687614769
1719785815,689855812,0.003195793,-0.001065264,0,0.239418945,-0.009576758,9.792234863,3956.2,1719785814,-2.042223841,-1.932830521,0.136700509,0.013686968,0.002336258,0.725942061,0.687615687
1719785815,692300275,0.002130529,0,-0.001065264,0.239418945,-0.009576758,9.792234863,3956.4,1719785814,-2.042223749,-1.932829195,0.136698458,0.013680948,0.002334991,0.725941308,0.687616606
1719785815,694828224,0.003195793,0.001065264,-0.004261058,0.239418945,-0.009576758,9.792234863,3956.6,1719785814,-2.042223658,-1.93282787,0.136696406,0.013674929,0.002333725,0.725940556,0.687617524
1719785815,699954649,0.001065264,0.002130529,-0.005326322,0.244207324,-0.009576758,9.797023242,3956.8,1719785814,-2.042223566,-1.932826544,0.136694355,0.013668909,0.002332458,0.725939803,0.687618443
1719785815,699996248,0.002130529,0,-0.004261058,0.248995703,-0.009576758,9.8066,3957,1719785814,-2.042223475,-1.932825219,0.136692303,0.01366289,0.002331192,0.725939051,0.687619361
1719785815,702311530,0,0,-0.006391587,0.244207324,-0.014365137,9.811388379,3957.2,1719785814,-2.04222343,-1.932821122,0.136692792,0.013666067,0.002328813,0.725940327,0.687617959
1719785815,707313350,0.003195793,0,-0.001065264,0.244207324,-0.014365137,9.8066,3957.4,1719785814,-2.042223386,-1.932817026,0.136693281,0.013669245,0.002326434,0.725941602,0.687616557
1719785815,709936657,0.001065264,0,-0.005326322,0.239418945,-0.014365137,9.8066,3957.6,1719785814,-2.042223341,-1.932812929,0.136693769,0.013672422,0.002324055,0.725942878,0.687615156
1719785815,712309986,0.004261058,0,-0.004261058,0.234630566,-0.009576758,9.801811621,3957.8,1719785814,-2.042223297,-1.932808833,0.136694258,0.0136756,0.002321676,0.725944153,0.687613754
1719785815,714844655,0.002130529,0.001065264,-0.003195793,0.234630566,-0.009576758,9.801811621,3958,1719785814,-2.042223252,-1.932804736,0.136694747,0.013678777,0.002319297,0.725945429,0.687612352
1719785815,717312573,0.002130529,0,-0.002130529,0.239418945,-0.004788379,9.797023242,3958.2,1719785814,-2.042222638,-1.9328015,0.136692473,0.013673627,0.002324436,0.725946396,0.687611416
1719785815,719831339,0.001065264,0.002130529,-0.004261058,0.234630566,-0.004788379,9.797023242,3958.4,1719785814,-2.042222023,-1.932798264,0.136690199,0.013668476,0.002329575,0.725947364,0.687610479
1719785815,722314425,0.002130529,0.002130529,-0.005326322,0.239418945,0,9.797023242,3958.6,1719785814,-2.042221409,-1.932795027,0.136687924,0.013663326,0.002334713,0.725948331,0.687609543
1719785815,724822727,0.001065264,0.003195793,-0.004261058,0.244207324,0.004788379,9.801811621,3958.8,1719785814,-2.042220794,-1.932791791,0.13668565,0.013658175,0.002339852,0.725949299,0.687608606
1719785815,727313557,0.002130529,0.003195793,-0.004261058,0.244207324,0.004788379,9.8066,3959,1719785814,-2.04222018,-1.932788555,0.136683376,0.013653025,0.002344991,0.725950266,0.68760767
1719785815,729838370,0.004261058,0.001065264,-0.002130529,0.244207324,0.004788379,9.8066,3959.2,1719785814,-2.042221702,-1.932792574,0.136680737,0.013657707,0.002342971,0.725947295,0.687610721
1719785815,732309649,0.003195793,0.002130529,0.001065264,0.244207324,0,9.811388379,3959.4,1719785814,-2.042223223,-1.932796594,0.136678098,0.013662388,0.002340951,0.725944324,0.687613771
1719785815,734834878,0.002130529,0,-0.002130529,0.248995703,0,9.820965137,3959.6,1719785814,-2.042224745,-1.932800613,0.136675459,0.01366707,0.00233893,0.725941352,0.687616822
1719785815,737328012,0.004261058,0.001065264,-0.005326322,0.239418945,0,9.820965137,3959.8,1719785814,-2.042226266,-1.932804633,0.13667282,0.013671751,0.00233691,0.725938381,0.687619872
1719785815,737362476,0.005326322,0.001065264,-0.004261058,0.239418945,0,9.820965137,3960,1719785814,-2.042227788,-1.932808652,0.136670181,0.013676433,0.00233489,0.72593541,0.687622923
1719785815,739841498,0.001065264,0.003195793,-0.003195793,0.239418945,0.004788379,9.820965137,3960.2,1719785814,-2.042228299,-1.932815084,0.136670371,0.01367215,0.002338992,0.725938273,0.687619972
1719785815,744838966,0,0.001065264,-0.003195793,0.234630566,0,9.816176758,3960.4,1719785814,-2.04222881,-1.932821516,0.136670561,0.013667866,0.002343094,0.725941136,0.687617021
1719785815,747292965,0.004261058,0.002130529,-0.002130529,0.239418945,0,9.816176758,3960.6,1719785814,-2.042229321,-1.932827948,0.136670752,0.013663583,0.002347197,0.725943998,0.687614069
1719785815,749852945,0.003195793,0.002130529,-0.002130529,0.244207324,0,9.811388379,3960.8,1719785814,-2.042229832,-1.93283438,0.136670942,0.013659299,0.002351299,0.725946861,0.687611118
1719785815,749881841,0.004261058,0.002130529,0.001065264,0.244207324,0.004788379,9.811388379,3961,1719785814,-2.042230343,-1.932840812,0.136671132,0.013655016,0.002355401,0.725949724,0.687608167
1719785815,755056393,0.002130529,0.002130529,-0.003195793,0.239418945,0,9.811388379,3961.2,1719785814,-2.042229006,-1.932840561,0.136671231,0.013659771,0.002354858,0.725950737,0.687607005
1719785815,757300828,0,0.001065264,-0.004261058,0.239418945,-0.004788379,9.8066,3961.4,1719785814,-2.042227669,-1.93284031,0.136671331,0.013664526,0.002354315,0.72595175,0.687605843
1719785815,760043365,0,0.001065264,-0.002130529,0.244207324,-0.004788379,9.801811621,3961.6,1719785814,-2.042226333,-1.932840059,0.13667143,0.013669282,0.002353772,0.725952762,0.687604681
1719785815,762312792,0.002130529,0.001065264,-0.003195793,0.253784082,-0.004788379,9.8066,3961.8,1719785814,-2.042224996,-1.932839808,0.13667153,0.013674037,0.002353229,0.725953775,0.687603519
1719785815,764862853,-0.001065264,0.003195793,-0.004261058,0.258572461,-0.004788379,9.8066,3962,1719785814,-2.042223659,-1.932839557,0.136671629,0.013678792,0.002352686,0.725954788,0.687602357
1719785815,767438129,-0.001065264,0,-0.004261058,0.26336084,0,9.8066,3962.2,1719785814,-2.042223098,-1.932837602,0.136677671,0.013673538,0.002358266,0.72595417,0.687603094
1719785815,769852033,0.001065264,0,-0.005326322,0.258572461,-0.004788379,9.8066,3962.4,1719785814,-2.042222537,-1.932835647,0.136683713,0.013668284,0.002363846,0.725953552,0.687603832
1719785815,769883520,0.003195793,0,-0.003195793,0.258572461,-0.004788379,9.8066,3962.6,1719785814,-2.042221977,-1.932833693,0.136689755,0.013663029,0.002369425,0.725952935,0.687604569
1719785815,772331471,0.003195793,0.002130529,-0.001065264,0.253784082,-0.009576758,9.8066,3962.8,1719785814,-2.042221416,-1.932831738,0.136695797,0.013657775,0.002375005,0.725952317,0.687605307
1719785815,777285068,0.003195793,0.002130529,-0.005326322,0.244207324,-0.009576758,9.8066,3963,1719785814,-2.042220855,-1.932829783,0.136701839,0.013652521,0.002380585,0.725951699,0.687606044
1719785815,779835193,0.001065264,0.003195793,-0.005326322,0.239418945,-0.009576758,9.811388379,3963.2,1719785814,-2.04222021,-1.932826363,0.13670552,0.013659438,0.002370533,0.725949844,0.687607899
1719785815,779863128,0.002130529,0.001065264,-0.004261058,0.239418945,-0.004788379,9.801811621,3963.4,1719785814,-2.042219565,-1.932822944,0.1367092,0.013666356,0.002360481,0.72594799,0.687609754
1719785815,784872116,0.004261058,0,-0.002130529,0.234630566,0,9.792234863,3963.6,1719785814,-2.042218919,-1.932819524,0.136712881,0.013673273,0.00235043,0.725946135,0.687611608
1719785815,787327074,0.002130529,0.005326322,-0.002130529,0.239418945,0,9.792234863,3963.8,1719785814,-2.042218274,-1.932816105,0.136716561,0.013680191,0.002340378,0.725944281,0.687613463
1719785815,787361282,0.002130529,0.004261058,-0.003195793,0.244207324,-0.004788379,9.797023242,3964,1719785814,-2.042217629,-1.932812685,0.136720242,0.013687108,0.002330326,0.725942426,0.687615318
1719785815,792304223,0.002130529,0.001065264,-0.001065264,0.244207324,-0.004788379,9.797023242,3964.2,1719785814,-2.042218189,-1.932812692,0.136721981,0.013683672,0.002329647,0.725942689,0.687615111
1719785815,794827436,0.002130529,0.001065264,-0.005326322,0.244207324,-0.009576758,9.792234863,3964.4,1719785814,-2.042218749,-1.932812699,0.136723721,0.013680235,0.002328967,0.725942952,0.687614904
1719785815,797311994,0.002130529,0.003195793,-0.002130529,0.244207324,-0.009576758,9.792234863,3964.6,1719785814,-2.042219309,-1.932812706,0.13672546,0.013676799,0.002328288,0.725943215,0.687614698
1719785815,799835560,0,0,0,0.239418945,-0.009576758,9.792234863,3964.8,1719785814,-2.042219869,-1.932812713,0.1367272,0.013673362,0.002327608,0.725943478,0.687614491
1719785815,802305654,0,0.002130529,0.001065264,0.234630566,-0.009576758,9.797023242,3965,1719785814,-2.042220429,-1.93281272,0.136728939,0.013669926,0.002326929,0.725943741,0.687614284
1719785815,804851011,0.004261058,0,-0.001065264,0.239418945,-0.009576758,9.801811621,3965.2,1719785814,-2.042221537,-1.932814051,0.13672425,0.013671037,0.002331979,0.725944411,0.687613538
1719785815,807297042,0.003195793,0.003195793,-0.004261058,0.244207324,-0.009576758,9.801811621,3965.4,1719785814,-2.042222644,-1.932815382,0.136719561,0.013672149,0.002337029,0.725945081,0.687612791
1719785815,807329746,0.002130529,0.002130529,-0.003195793,0.244207324,-0.009576758,9.801811621,3965.6,1719785814,-2.042223752,-1.932816713,0.136714871,0.01367326,0.00234208,0.72594575,0.687612045
1719785815,809825664,0.002130529,0.004261058,-0.004261058,0.244207324,-0.014365137,9.801811621,3965.8,1719785814,-2.042224859,-1.932818044,0.136710182,0.013674372,0.00234713,0.72594642,0.687611298
1719785815,814813628,0.002130529,0.003195793,-0.001065264,0.248995703,-0.014365137,9.801811621,3966,1719785814,-2.042225967,-1.932819375,0.136705493,0.013675483,0.00235218,0.72594709,0.687610552
1719785815,817285866,0.001065264,0.003195793,-0.001065264,0.248995703,-0.009576758,9.801811621,3966.2,1719785814,-2.042225677,-1.932819872,0.136703814,0.013667516,0.002360088,0.72594937,0.687608276
1719785815,819815031,0,0.002130529,-0.003195793,0.239418945,-0.004788379,9.797023242,3966.4,1719785814,-2.042225386,-1.932820369,0.136702134,0.013659548,0.002367996,0.72595165,0.687606
1719785815,822352709,0.001065264,0.005326322,-0.004261058,0.239418945,-0.004788379,9.797023242,3966.6,1719785814,-2.042225096,-1.932820867,0.136700455,0.013651581,0.002375904,0.72595393,0.687603723
1719785815,824832851,-0.001065264,0.003195793,-0.005326322,0.239418945,-0.004788379,9.801811621,3966.8,1719785814,-2.042224805,-1.932821364,0.136698775,0.013643613,0.002383812,0.72595621,0.687601447
1719785815,827297890,0,0.004261058,-0.002130529,0.239418945,-0.004788379,9.811388379,3967,1719785814,-2.042224515,-1.932821861,0.136697096,0.013635646,0.00239172,0.72595849,0.687599171
1719785815,829959820,0.002130529,0.001065264,-0.002130529,0.239418945,-0.004788379,9.811388379,3967.2,1719785814,-2.042225122,-1.932822632,0.136697692,0.013639785,0.002380112,0.725954723,0.687603105
1719785815,832271870,0.002130529,-0.001065264,-0.001065264,0.244207324,0,9.811388379,3967.4,1719785814,-2.042225729,-1.932823402,0.136698287,0.013643924,0.002368504,0.725950957,0.687607039
1719785815,834822923,0.004261058,0.001065264,-0.005326322,0.244207324,0,9.811388379,3967.6,1719785814,-2.042226335,-1.932824173,0.136698883,0.013648064,0.002356895,0.72594719,0.687610974
1719785815,837282105,0.002130529,0.001065264,-0.002130529,0.244207324,0,9.816176758,3967.8,1719785814,-2.042226942,-1.932824943,0.136699478,0.013652203,0.002345287,0.725943424,0.687614908
1719785815,839837830,0.002130529,0.003195793,-0.003195793,0.244207324,0,9.816176758,3968,1719785814,-2.042227549,-1.932825714,0.136700074,0.013656342,0.002333679,0.725939657,0.687618842
1719785815,842303413,0.004261058,0.001065264,-0.004261058,0.248995703,0,9.816176758,3968.2,1719785814,-2.042227992,-1.932822721,0.136702292,0.013654488,0.002339607,0.725939573,0.687618948
1719785815,844847618,0.001065264,0.001065264,-0.006391587,0.248995703,0,9.811388379,3968.4,1719785814,-2.042228435,-1.932819728,0.136704509,0.013652634,0.002345534,0.725939489,0.687619053
1719785815,847298801,0.003195793,0.002130529,-0.003195793,0.244207324,0,9.8066,3968.6,1719785814,-2.042228879,-1.932816735,0.136706727,0.013650781,0.002351462,0.725939404,0.687619159
1719785815,849835326,0.002130529,0.001065264,-0.004261058,0.244207324,-0.004788379,9.8066,3968.8,1719785814,-2.042229322,-1.932813742,0.136708944,0.013648927,0.002357389,0.72593932,0.687619264
1719785815,852290349,0,0.001065264,-0.004261058,0.239418945,-0.009576758,9.801811621,3969,1719785814,-2.042229765,-1.932810749,0.136711162,0.013647073,0.002363317,0.725939236,0.68761937
1719785815,854834906,0.002130529,0.003195793,-0.004261058,0.234630566,-0.009576758,9.8066,3969.2,1719785814,-2.042230181,-1.93280804,0.136716376,0.013650013,0.0023528,0.725936589,0.687622142
1719785815,857299368,0.002130529,0.003195793,-0.003195793,0.234630566,-0.004788379,9.811388379,3969.4,1719785814,-2.042230596,-1.932805331,0.136721589,0.013652953,0.002342284,0.725933942,0.687624913
1719785815,857326216,0.001065264,0.002130529,-0.003195793,0.234630566,-0.004788379,9.811388379,3969.6,1719785814,-2.042231012,-1.932802621,0.136726803,0.013655894,0.002331767,0.725931296,0.687627685
1719785815,859832438,0.001065264,0.001065264,-0.001065264,0.239418945,-0.004788379,9.811388379,3969.8,1719785814,-2.042231427,-1.932799912,0.136732016,0.013658834,0.002321251,0.725928649,0.687630456
1719785815,862266981,0,0.001065264,-0.005326322,0.234630566,-0.004788379,9.811388379,3970,1719785814,-2.042231843,-1.932797203,0.13673723,0.013661774,0.002310734,0.725926002,0.687633228
1719785815,867294784,0,0.001065264,-0.003195793,0.229842188,-0.004788379,9.801811621,3970.2,1719785814,-2.04223247,-1.932800385,0.136736739,0.013666155,0.00231452,0.72592652,0.687632581
1719785815,867327135,0.001065264,0.001065264,-0.003195793,0.229842188,-0.004788379,9.801811621,3970.4,1719785814,-2.042233097,-1.932803568,0.136736248,0.013670536,0.002318306,0.725927039,0.687631934
1719785815,872333755,0.002130529,0.002130529,-0.001065264,0.229842188,-0.004788379,9.8066,3970.6,1719785814,-2.042233725,-1.93280675,0.136735757,0.013674916,0.002322092,0.725927557,0.687631286
1719785815,874819177,0.001065264,0.001065264,-0.001065264,0.234630566,-0.004788379,9.8066,3970.8,1719785814,-2.042234352,-1.932809933,0.136735266,0.013679297,0.002325878,0.725928076,0.687630639
1719785815,877270168,0.005326322,0.002130529,-0.003195793,0.239418945,-0.004788379,9.8066,3971,1719785814,-2.042234979,-1.932813115,0.136734775,0.013683678,0.002329664,0.725928594,0.687629992
1719785815,879831525,0.001065264,-0.001065264,-0.002130529,0.239418945,-0.004788379,9.8066,3971.2,1719785814,-2.042234032,-1.932816297,0.136731351,0.013677232,0.002340105,0.725929767,0.687628846
1719785815,882258164,0.001065264,0.001065264,-0.003195793,0.234630566,-0.004788379,9.8066,3971.4,1719785814,-2.042233085,-1.932819479,0.136727926,0.013670786,0.002350545,0.72593094,0.6876277
1719785815,884832417,0.001065264,0.002130529,-0.001065264,0.244207324,-0.009576758,9.801811621,3971.6,1719785814,-2.042232137,-1.93282266,0.136724502,0.013664339,0.002360986,0.725932112,0.687626555
1719785815,887267696,0.002130529,0.003195793,-0.002130529,0.244207324,-0.009576758,9.797023242,3971.8,1719785814,-2.04223119,-1.932825842,0.136721077,0.013657893,0.002371426,0.725933285,0.687625409
1719785815,889830524,0.003195793,0.001065264,0,0.239418945,-0.014365137,9.797023242,3972,1719785814,-2.042230243,-1.932829024,0.136717653,0.013651447,0.002381867,0.725934458,0.687624263
1719785815,892261868,0,0.003195793,-0.003195793,0.239418945,-0.014365137,9.797023242,3972.2,1719785814,-2.042229543,-1.932830288,0.136715615,0.013652436,0.002374571,0.725936404,0.687622214
1719785815,897268039,0.001065264,0.004261058,-0.001065264,0.234630566,-0.014365137,9.797023242,3972.4,1719785814,-2.042228843,-1.932831553,0.136713576,0.013653425,0.002367275,0.725938349,0.687620166
1719785815,897299943,0,0,-0.002130529,0.234630566,-0.014365137,9.797023242,3972.6,1719785814,-2.042228143,-1.932832817,0.136711538,0.013654415,0.00235998,0.725940295,0.687618117
1719785815,899822004,0.003195793,0.001065264,-0.003195793,0.239418945,-0.014365137,9.801811621,3972.8,1719785814,-2.042227443,-1.932834082,0.136709499,0.013655404,0.002352684,0.72594224,0.687616069
1719785815,902253891,0.004261058,0,-0.002130529,0.239418945,-0.014365137,9.801811621,3973,1719785814,-2.042226743,-1.932835346,0.136707461,0.013656393,0.002345388,0.725944186,0.68761402
1719785815,904830288,0.002130529,0.002130529,-0.005326322,0.239418945,-0.009576758,9.8066,3973.2,1719785814,-2.042228212,-1.932833749,0.136709936,0.013655944,0.002345927,0.725942737,0.687615556
1719785815,907267839,0.001065264,0.004261058,-0.004261058,0.239418945,-0.004788379,9.8066,3973.4,1719785814,-2.042229681,-1.932832152,0.136712411,0.013655494,0.002346466,0.725941289,0.687617093
1719785815,909816300,0.004261058,0.002130529,-0.003195793,0.248995703,-0.004788379,9.8066,3973.6,1719785814,-2.042231151,-1.932830554,0.136714887,0.013655045,0.002347006,0.72593984,0.687618629
1719785815,912272699,0.003195793,0.001065264,-0.003195793,0.253784082,-0.004788379,9.8066,3973.8,1719785814,-2.04223262,-1.932828957,0.136717362,0.013654595,0.002347545,0.725938392,0.687620166
1719785815,914827176,0.003195793,-0.001065264,-0.003195793,0.253784082,-0.004788379,9.8066,3974,1719785814,-2.042234089,-1.93282736,0.136719837,0.013654146,0.002348084,0.725936943,0.687621702
1719785815,917266935,0.003195793,0.001065264,0,0.253784082,-0.004788379,9.8066,3974.2,1719785814,-2.042233452,-1.932823633,0.136723572,0.013656335,0.002347385,0.725937744,0.687620816
1719785815,919811492,0.003195793,-0.001065264,0,0.248995703,-0.004788379,9.811388379,3974.4,1719785814,-2.042232816,-1.932819905,0.136727307,0.013658523,0.002346685,0.725938545,0.687619929
1719785815,922256755,0.002130529,0,-0.002130529,0.253784082,-0.004788379,9.811388379,3974.6,1719785814,-2.042232179,-1.932816178,0.136731042,0.013660712,0.002345986,0.725939345,0.687619043
1719785815,924814175,0.002130529,0.002130529,-0.004261058,0.253784082,0,9.811388379,3974.8,1719785814,-2.042231543,-1.93281245,0.136734777,0.0136629,0.002345286,0.725940146,0.687618156
1719785815,927294158,0,0.002130529,-0.003195793,0.253784082,0.004788379,9.8066,3975,1719785814,-2.042230906,-1.932808723,0.136738512,0.013665089,0.002344587,0.725940947,0.68761727
1719785815,927325293,0.002130529,0.002130529,-0.002130529,0.248995703,0.004788379,9.801811621,3975.2,1719785814,-2.042230731,-1.932809212,0.136734598,0.013666538,0.002350496,0.725943706,0.687614309
1719785815,932265866,0.002130529,0.002130529,-0.004261058,0.244207324,0.004788379,9.797023242,3975.4,1719785814,-2.042230557,-1.932809701,0.136730685,0.013667987,0.002356404,0.725946464,0.687611347
1719785815,934841782,0.003195793,0.001065264,-0.002130529,0.239418945,0.004788379,9.801811621,3975.6,1719785815,-2.042230382,-1.93281019,0.136726771,0.013669436,0.002362313,0.725949223,0.687608386
1719785815,937260902,0.002130529,0.002130529,-0.004261058,0.239418945,-0.004788379,9.801811621,3975.8,1719785815,-2.042230208,-1.932810679,0.136722858,0.013670885,0.002368221,0.725951981,0.687605424
1719785815,939840562,0.003195793,0.001065264,-0.004261058,0.239418945,-0.004788379,9.801811621,3976,1719785815,-2.042230033,-1.932811168,0.136718944,0.013672334,0.00237413,0.72595474,0.687602463
1719785815,939868978,0.002130529,0.003195793,-0.003195793,0.239418945,-0.004788379,9.8066,3976.2,1719785815,-2.042230343,-1.932814462,0.13671224,0.013662856,0.00236783,0.725954124,0.687603323
1719785815,944826958,0.001065264,0.002130529,-0.003195793,0.244207324,0,9.811388379,3976.4,1719785815,-2.042230652,-1.932817756,0.136705536,0.013653378,0.00236153,0.725953508,0.687604183
1719785815,947266334,0,0.001065264,-0.001065264,0.239418945,0,9.811388379,3976.6,1719785815,-2.042230962,-1.93282105,0.136698831,0.013643899,0.00235523,0.725952893,0.687605042
1719785815,949827786,0,0.001065264,-0.001065264,0.234630566,0,9.811388379,3976.8,1719785815,-2.042231271,-1.932824344,0.136692127,0.013634421,0.00234893,0.725952277,0.687605902
1719785815,952268921,0.001065264,0.002130529,-0.002130529,0.229842188,0,9.816176758,3977,1719785815,-2.042231581,-1.932827638,0.136685423,0.013624943,0.00234263,0.725951661,0.687606762
1719785815,954807814,0.003195793,0,-0.004261058,0.229842188,-0.009576758,9.811388379,3977.2,1719785815,-2.042230785,-1.932830779,0.136688337,0.013628797,0.002340084,0.725949797,0.687608662
1719785815,957283157,-0.002130529,0,-0.004261058,0.234630566,-0.009576758,9.801811621,3977.4,1719785815,-2.042229988,-1.932833919,0.136691251,0.013632651,0.002337539,0.725947933,0.687610562
1719785815,957319252,0,0,-0.002130529,0.229842188,-0.004788379,9.797023242,3977.6,1719785815,-2.042229192,-1.93283706,0.136694166,0.013636506,0.002334993,0.725946069,0.687612463
1719785815,962271057,0.004261058,0.005326322,-0.003195793,0.225053809,0,9.787446484,3977.8,1719785815,-2.042228395,-1.9328402,0.13669708,0.01364036,0.002332448,0.725944205,0.687614363
1719785815,964815262,0.003195793,0.003195793,-0.001065264,0.22026543,0.004788379,9.782658105,3978,1719785815,-2.042227599,-1.932843341,0.136699994,0.013644214,0.002329902,0.725942341,0.687616263
1719785815,967307916,0.003195793,0.001065264,-0.002130529,0.234630566,0.004788379,9.787446484,3978.2,1719785815,-2.042227189,-1.93284787,0.136702515,0.013641516,0.002328806,0.72594331,0.687615297
1719785815,967339819,0.002130529,0.004261058,-0.002130529,0.244207324,0.004788379,9.787446484,3978.4,1719785815,-2.04222678,-1.9328524,0.136705035,0.013638819,0.00232771,0.725944279,0.687614331
1719785815,972308680,-0.001065264,0.003195793,-0.004261058,0.244207324,-0.004788379,9.792234863,3978.6,1719785815,-2.04222637,-1.932856929,0.136707556,0.013636121,0.002326614,0.725945248,0.687613366
1719785815,974826741,0,0.002130529,-0.002130529,0.244207324,-0.009576758,9.792234863,3978.8,1719785815,-2.042225961,-1.932861459,0.136710076,0.013633424,0.002325518,0.725946217,0.6876124
1719785815,977299492,0.001065264,0.002130529,-0.003195793,0.239418945,-0.009576758,9.792234863,3979,1719785815,-2.042225551,-1.932865988,0.136712597,0.013630726,0.002324422,0.725947186,0.687611434
1719785815,977330051,0.003195793,0.003195793,-0.002130529,0.234630566,-0.009576758,9.797023242,3979.2,1719785815,-2.042225132,-1.932859602,0.136717959,0.013632056,0.002327997,0.72594942,0.687609037
1719785815,979822385,0.002130529,0.002130529,-0.005326322,0.229842188,-0.004788379,9.801811621,3979.4,1719785815,-2.042224712,-1.932853217,0.13672332,0.013633386,0.002331572,0.725951654,0.687606639
1719785815,984819725,0,0.003195793,-0.006391587,0.239418945,0,9.801811621,3979.6,1719785815,-2.042224293,-1.932846831,0.136728682,0.013634716,0.002335148,0.725953889,0.687604242
1719785815,987260924,0,0.001065264,-0.005326322,0.244207324,0.004788379,9.8066,3979.8,1719785815,-2.042223873,-1.932840446,0.136734043,0.013636046,0.002338723,0.725956123,0.687601844
1719785815,989813993,0.001065264,0.003195793,-0.003195793,0.244207324,0.004788379,9.8066,3980,1719785815,-2.042223454,-1.93283406,0.136739405,0.013637376,0.002342298,0.725958357,0.687599447
1719785815,992249272,0.003195793,0.002130529,-0.003195793,0.239418945,0.004788379,9.8066,3980.2,1719785815,-2.042223933,-1.932827302,0.136739657,0.013640688,0.002342345,0.725956422,0.687601424
1719785815,994914179,0.003195793,0.002130529,-0.003195793,0.239418945,0,9.8066,3980.4,1719785815,-2.042224413,-1.932820545,0.136739908,0.013644,0.002342392,0.725954487,0.687603401
1719785815,997292275,0.001065264,0.005326322,-0.002130529,0.234630566,-0.004788379,9.8066,3980.6,1719785815,-2.042224892,-1.932813787,0.13674016,0.013647312,0.00234244,0.725952552,0.687605379
1719785815,997359282,0.001065264,0.001065264,-0.002130529,0.239418945,-0.004788379,9.801811621,3980.8,1719785815,-2.042225372,-1.93280703,0.136740411,0.013650624,0.002342487,0.725950617,0.687607356
1719785815,2254096,0.002130529,0.003195793,-0.003195793,0.244207324,-0.004788379,9.797023242,3981,1719785815,-2.042225851,-1.932800272,0.136740663,0.013653936,0.002342534,0.725948682,0.687609333
1719785815,4820509,-0.001065264,0.004261058,-0.004261058,0.248995703,-0.004788379,9.792234863,3981.2,1719785815,-2.042228094,-1.932802471,0.13673934,0.013651125,0.002338654,0.725949138,0.68760892
1719785815,7250220,-0.001065264,0.002130529,-0.006391587,0.253784082,0,9.782658105,3981.4,1719785815,-2.042230336,-1.93280467,0.136738017,0.013648315,0.002334773,0.725949595,0.687608507
1719785815,9818809,0.002130529,0.003195793,-0.002130529,0.253784082,0,9.782658105,3981.6,1719785815,-2.042232579,-1.93280687,0.136736693,0.013645504,0.002330893,0.725950051,0.687608093
1719785815,12249769,0.002130529,0.002130529,0,0.253784082,0,9.782658105,3981.8,1719785815,-2.042234821,-1.932809069,0.13673537,0.013642694,0.002327012,0.725950508,0.68760768
1719785815,14850261,0,0.002130529,-0.003195793,0.248995703,-0.004788379,9.792234863,3982,1719785815,-2.042237064,-1.932811268,0.136734047,0.013639883,0.002323132,0.725950964,0.687607267
1719785815,17262821,0.002130529,0.002130529,-0.002130529,0.244207324,0,9.797023242,3982.2,1719785815,-2.042236579,-1.932819559,0.13673194,0.013635898,0.002335354,0.725951761,0.687606463
1719785815,17292676,0.002130529,0.002130529,-0.003195793,0.244207324,0.004788379,9.797023242,3982.4,1719785815,-2.042236095,-1.932827849,0.136729834,0.013631913,0.002347576,0.725952557,0.687605659
1719785815,19813042,0.003195793,0.003195793,-0.002130529,0.244207324,0.004788379,9.797023242,3982.6,1719785815,-2.04223561,-1.93283614,0.136727727,0.013627928,0.002359799,0.725953354,0.687604856
1719785815,24857869,0,0.002130529,-0.003195793,0.253784082,0.004788379,9.792234863,3982.8,1719785815,-2.042235126,-1.93284443,0.136725621,0.013623943,0.002372021,0.72595415,0.687604052
1719785815,27252029,0.002130529,0.003195793,-0.003195793,0.26336084,0.004788379,9.792234863,3983,1719785815,-2.042234641,-1.932852721,0.136723514,0.013619958,0.002384243,0.725954947,0.687603248
1719785815,29816682,0,0.001065264,-0.004261058,0.26336084,0,9.864060547,3983.2,1719785815,-2.042235154,-1.932857851,0.136720653,0.013618753,0.002383259,0.725953668,0.687604626
1719785815,32249018,0.002130529,0.002130529,-0.004261058,0.268149219,0,9.911944336,3983.4,1719785815,-2.042235667,-1.932862981,0.136717791,0.013617549,0.002382275,0.725952388,0.687606004
1719785815,34816039,0.001065264,0.001065264,-0.002130529,0.268149219,0,9.907155957,3983.6,1719785815,-2.042236179,-1.932868112,0.13671493,0.013616344,0.00238129,0.725951109,0.687607382
1719785815,37239446,0.001065264,0,-0.001065264,0.268149219,0.004788379,9.878425684,3983.8,1719785815,-2.042236692,-1.932873242,0.136712068,0.01361514,0.002380306,0.725949829,0.68760876
1719785815,39836835,0.004261058,-0.001065264,-0.002130529,0.253784082,0.004788379,9.854483789,3984,1719785815,-2.042237205,-1.932878372,0.136709207,0.013613935,0.002379322,0.72594855,0.687610138
1719785815,39863394,0.001065264,0.004261058,-0.003195793,0.244207324,0,9.840118652,3984.2,1719785815,-2.042236932,-1.932875728,0.136711277,0.013613474,0.002383047,0.72594577,0.68761307
1719785815,42246259,0.002130529,0.003195793,-0.003195793,0.239418945,-0.009576758,9.825753516,3984.4,1719785815,-2.042236659,-1.932873084,0.136713347,0.013613012,0.002386772,0.725942989,0.687616002
1719785815,47281102,0.001065264,0,0,0.239418945,-0.009576758,9.816176758,3984.6,1719785815,-2.042236386,-1.93287044,0.136715417,0.013612551,0.002390498,0.725940209,0.687618933
1719785815,47327917,0.002130529,0.003195793,0,0.239418945,-0.009576758,9.811388379,3984.8,1719785815,-2.042236113,-1.932867796,0.136717487,0.013612089,0.002394223,0.725937428,0.687621865
1719785815,52271755,0.003195793,0.004261058,-0.001065264,0.244207324,-0.014365137,9.801811621,3985,1719785815,-2.04223584,-1.932865152,0.136719557,0.013611628,0.002397948,0.725934648,0.687624797
1719785815,52307978,0.003195793,0.003195793,-0.002130529,0.244207324,-0.009576758,9.801811621,3985.2,1719785815,-2.042236593,-1.932857239,0.136721887,0.013618719,0.002391714,0.725936758,0.68762245
1719785815,57273159,0,0.003195793,-0.002130529,0.244207324,-0.004788379,9.797023242,3985.4,1719785815,-2.042237346,-1.932849326,0.136724218,0.01362581,0.002385481,0.725938868,0.687620104
1719785815,59735350,0.001065264,0.002130529,0,0.239418945,-0.004788379,9.801811621,3985.6,1719785815,-2.0422381,-1.932841413,0.136726548,0.013632902,0.002379247,0.725940977,0.687617757
1719785815,62249924,0.001065264,0.001065264,-0.003195793,0.244207324,-0.004788379,9.801811621,3985.8,1719785815,-2.042238853,-1.9328335,0.136728879,0.013639993,0.002373014,0.725943087,0.687615411
1719785815,64843696,0.001065264,0,-0.005326322,0.253784082,-0.004788379,9.801811621,3986,1719785815,-2.042239606,-1.932825587,0.136731209,0.013647084,0.00236678,0.725945197,0.687613064
1719785815,67232608,0,0.001065264,-0.002130529,0.253784082,-0.009576758,9.801811621,3986.2,1719785815,-2.04224046,-1.932824404,0.136732161,0.013648442,0.002372064,0.72594901,0.687608993
1719785815,69838541,0,0.001065264,-0.002130529,0.248995703,-0.009576758,9.8066,3986.4,1719785815,-2.042241315,-1.93282322,0.136733113,0.013649799,0.002377348,0.725952823,0.687604923
1719785815,72251484,0.003195793,0.001065264,0,0.253784082,-0.009576758,9.8066,3986.6,1719785815,-2.042242169,-1.932822037,0.136734066,0.013651157,0.002382633,0.725956635,0.687600852
1719785815,72286012,0.004261058,0.002130529,-0.002130529,0.253784082,-0.009576758,9.8066,3986.8,1719785815,-2.042243024,-1.932820853,0.136735018,0.013652514,0.002387917,0.725960448,0.687596782
1719785815,77268472,0.001065264,0.002130529,-0.003195793,0.248995703,-0.009576758,9.8066,3987,1719785815,-2.042243878,-1.93281967,0.13673597,0.013653872,0.002393201,0.725964261,0.687592711
1719785815,77309112,0,0.001065264,-0.003195793,0.248995703,-0.014365137,9.8066,3987.2,1719785815,-2.042243766,-1.932825983,0.13673484,0.013651984,0.002391342,0.725964543,0.687592457
1719785815,82242645,0.001065264,0.003195793,-0.003195793,0.248995703,-0.014365137,9.8066,3987.4,1719785815,-2.042243654,-1.932832296,0.136733711,0.013650095,0.002389483,0.725964825,0.687592203
1719785815,84735428,0.003195793,0.003195793,-0.001065264,0.248995703,-0.014365137,9.8066,3987.6,1719785815,-2.042243543,-1.93283861,0.136732581,0.013648207,0.002387625,0.725965108,0.687591948
1719785815,87245874,0.003195793,0.002130529,-0.004261058,0.253784082,-0.014365137,9.8066,3987.8,1719785815,-2.042243431,-1.932844923,0.136731452,0.013646318,0.002385766,0.72596539,0.687591694
1719785815,89745472,0,0.003195793,-0.005326322,0.248995703,-0.014365137,9.816176758,3988,1719785815,-2.042243319,-1.932851236,0.136730322,0.01364443,0.002383907,0.725965672,0.68759144
1719785815,94750748,0.003195793,0.002130529,-0.003195793,0.248995703,-0.014365137,9.820965137,3988.2,1719785815,-2.04224228,-1.932862997,0.136729574,0.013644208,0.002385794,0.725966904,0.687590137
1719785815,94773947,0.002130529,0.002130529,-0.003195793,0.253784082,-0.014365137,9.816176758,3988.4,1719785815,-2.042241241,-1.932874759,0.136728826,0.013643985,0.00238768,0.725968136,0.687588834
1719785815,97265706,0,0.001065264,-0.003195793,0.253784082,-0.009576758,9.816176758,3988.6,1719785815,-2.042240203,-1.93288652,0.136728079,0.013643763,0.002389567,0.725969368,0.687587532
1719785815,97305225,0.002130529,0.003195793,-0.002130529,0.253784082,-0.004788379,9.811388379,3988.8,1719785815,-2.042239164,-1.932898282,0.136727331,0.01364354,0.002391453,0.7259706,0.687586229
1719785815,102244839,0.004261058,0.002130529,-0.002130529,0.244207324,-0.004788379,9.8066,3989,1719785815,-2.042238125,-1.932910043,0.136726583,0.013643318,0.00239334,0.725971832,0.687584926
1719785815,104825555,0.002130529,0,-0.002130529,0.239418945,-0.004788379,9.8066,3989.2,1719785815,-2.042238643,-1.932909999,0.136724025,0.013642929,0.002392937,0.725971752,0.68758502
1719785815,107252867,0.001065264,0.002130529,-0.002130529,0.239418945,-0.004788379,9.801811621,3989.4,1719785815,-2.042239162,-1.932909955,0.136721466,0.01364254,0.002392534,0.725971671,0.687585114
1719785815,109772048,0.002130529,0,-0.002130529,0.239418945,-0.004788379,9.797023242,3989.6,1719785815,-2.04223968,-1.932909911,0.136718908,0.01364215,0.002392131,0.725971591,0.687585208
1719785815,109799632,0.004261058,0.002130529,-0.001065264,0.239418945,-0.004788379,9.797023242,3989.8,1719785815,-2.042240199,-1.932909867,0.136716349,0.013641761,0.002391728,0.72597151,0.687585302
1719785815,112242495,0.002130529,0.002130529,-0.002130529,0.244207324,0,9.797023242,3990,1719785815,-2.042240717,-1.932909823,0.136713791,0.013641372,0.002391325,0.72597143,0.687585396
1719785815,117247707,0.003195793,0.003195793,-0.002130529,0.244207324,0.004788379,9.792234863,3990.2,1719785815,-2.042239294,-1.932899549,0.136715125,0.013637802,0.002388742,0.725967852,0.687589254
1719785815,119811176,0.001065264,0.003195793,-0.003195793,0.244207324,0.004788379,9.797023242,3990.4,1719785815,-2.042237871,-1.932889275,0.13671646,0.013634233,0.002386159,0.725964273,0.687593112
1719785815,122242552,0.004261058,0.004261058,-0.004261058,0.244207324,0.004788379,9.797023242,3990.6,1719785815,-2.042236449,-1.932879,0.136717794,0.013630663,0.002383576,0.725960695,0.68759697
1719785815,124792133,0.002130529,0.002130529,-0.004261058,0.244207324,-0.004788379,9.792234863,3990.8,1719785815,-2.042235026,-1.932868726,0.136719129,0.013627094,0.002380993,0.725957116,0.687600828
1719785815,127254260,0.001065264,0.005326322,-0.004261058,0.234630566,-0.009576758,9.797023242,3991,1719785815,-2.042233603,-1.932858452,0.136720463,0.013623524,0.00237841,0.725953538,0.687604686
1719785815,129738466,0.004261058,0.004261058,-0.003195793,0.234630566,-0.014365137,9.797023242,3991.2,1719785815,-2.042230602,-1.932859825,0.136718008,0.013633139,0.002351572,0.725960221,0.68759753
1719785815,132249584,0.003195793,0.001065264,-0.002130529,0.229842188,-0.014365137,9.801811621,3991.4,1719785815,-2.042227601,-1.932861199,0.136715553,0.013642754,0.002324733,0.725966903,0.687590373
1719785815,134734847,0.003195793,0.001065264,-0.004261058,0.229842188,-0.009576758,9.8066,3991.6,1719785815,-2.0422246,-1.932862572,0.136713097,0.01365237,0.002297895,0.725973586,0.687583217
1719785815,137231117,0.003195793,0.002130529,-0.005326322,0.229842188,-0.004788379,9.8066,3991.8,1719785815,-2.042221599,-1.932863946,0.136710642,0.013661985,0.002271056,0.725980268,0.68757606
1719785815,139753691,0.001065264,0.005326322,-0.002130529,0.234630566,-0.004788379,9.811388379,3992,1719785815,-2.042218598,-1.932865319,0.136708187,0.0136716,0.002244218,0.725986951,0.687568904
1719785815,139780826,0,0.003195793,-0.002130529,0.239418945,-0.004788379,9.8066,3992.2,1719785815,-2.042221681,-1.932863967,0.136713217,0.01366181,0.00227591,0.725983518,0.687572616
1719785815,142273641,0.004261058,0,-0.002130529,0.239418945,-0.004788379,9.801811621,3992.4,1719785815,-2.042224763,-1.932862614,0.136718247,0.013652019,0.002307602,0.725980085,0.687576328
1719785815,147227622,0.001065264,0.002130529,-0.002130529,0.239418945,0,9.797023242,3992.6,1719785815,-2.042227846,-1.932861262,0.136723276,0.013642229,0.002339294,0.725976652,0.68758004
1719785815,149757331,0.004261058,0,-0.003195793,0.248995703,0,9.797023242,3992.8,1719785815,-2.042230928,-1.932859909,0.136728306,0.013632438,0.002370986,0.725973219,0.687583752
1719785815,149786099,0,0.001065264,-0.001065264,0.248995703,-0.004788379,9.801811621,3993,1719785815,-2.042234011,-1.932858557,0.136733336,0.013622648,0.002402678,0.725969786,0.687587464
1719785815,154854542,0.001065264,-0.002130529,-0.004261058,0.253784082,-0.009576758,9.801811621,3993.2,1719785815,-2.042234036,-1.932865788,0.136731733,0.013620506,0.00240256,0.725967358,0.68759007
1719785815,157233758,0.002130529,0,-0.003195793,0.248995703,-0.009576758,9.801811621,3993.4,1719785815,-2.042234061,-1.932873018,0.13673013,0.013618364,0.002402442,0.72596493,0.687592676
1719785815,159730765,0,0.001065264,-0.001065264,0.248995703,-0.009576758,9.801811621,3993.6,1719785815,-2.042234085,-1.932880249,0.136728526,0.013616221,0.002402324,0.725962503,0.687595282
1719785815,162215931,0.001065264,0,0,0.244207324,-0.004788379,9.801811621,3993.8,1719785815,-2.04223411,-1.932887479,0.136726923,0.013614079,0.002402206,0.725960075,0.687597888
1719785815,164732457,0.003195793,0,-0.001065264,0.239418945,0,9.801811621,3994,1719785815,-2.042234135,-1.93289471,0.13672532,0.013611937,0.002402088,0.725957647,0.687600494
1719785815,167239063,0.004261058,0.002130529,0.001065264,0.239418945,0,9.8066,3994.2,1719785815,-2.042232995,-1.93289879,0.136726408,0.01361203,0.002403296,0.725960156,0.687597839
1719785815,167271414,0.003195793,0.002130529,0,0.244207324,0,9.811388379,3994.4,1719785815,-2.042231854,-1.93290287,0.136727496,0.013612123,0.002404504,0.725962664,0.687595185
1719785815,172240499,0.001065264,0,-0.002130529,0.244207324,-0.004788379,9.816176758,3994.6,1719785815,-2.042230714,-1.932906949,0.136728584,0.013612215,0.002405712,0.725965173,0.68759253
1719785815,172288178,0.003195793,0.002130529,-0.004261058,0.239418945,-0.004788379,9.816176758,3994.8,1719785815,-2.042229573,-1.932911029,0.136729672,0.013612308,0.00240692,0.725967681,0.687589876
1719785815,177222704,0.002130529,0.004261058,-0.002130529,0.244207324,-0.004788379,9.811388379,3995,1719785815,-2.042228433,-1.932915109,0.13673076,0.013612401,0.002408128,0.72597019,0.687587221
1719785815,179755805,0.001065264,0.002130529,-0.003195793,0.239418945,-0.004788379,9.8066,3995.2,1719785815,-2.042227161,-1.932906506,0.136735497,0.013613916,0.002405374,0.725966615,0.687590975
1719785815,182221004,0.004261058,0.002130529,-0.002130529,0.229842188,-0.004788379,9.801811621,3995.4,1719785815,-2.042225888,-1.932897904,0.136740234,0.01361543,0.00240262,0.72596304,0.68759473
1719785815,184736666,0.002130529,0,-0.003195793,0.229842188,-0.009576758,9.801811621,3995.6,1719785815,-2.042224616,-1.932889301,0.13674497,0.013616945,0.002399867,0.725959464,0.687598484
1719785815,187229928,0.004261058,0.001065264,-0.001065264,0.229842188,-0.014365137,9.801811621,3995.8,1719785815,-2.042223343,-1.932880699,0.136749707,0.013618459,0.002397113,0.725955889,0.687602239
1719785815,189718519,0.002130529,0,-0.002130529,0.234630566,-0.014365137,9.801811621,3996,1719785815,-2.042222071,-1.932872096,0.136754444,0.013619974,0.002394359,0.725952314,0.687605993
1719785815,192215813,0.001065264,0.001065264,-0.004261058,0.234630566,-0.014365137,9.792234863,3996.2,1719785815,-2.042220718,-1.932862154,0.136755647,0.013623667,0.002395338,0.725954126,0.687604003
1719785815,194728979,-0.001065264,0.001065264,-0.002130529,0.234630566,-0.009576758,9.792234863,3996.4,1719785815,-2.042219364,-1.932852212,0.13675685,0.01362736,0.002396318,0.725955938,0.687602013
1719785815,197221537,0.001065264,0,-0.001065264,0.239418945,-0.009576758,9.792234863,3996.6,1719785815,-2.042218011,-1.932842271,0.136758053,0.013631053,0.002397297,0.72595775,0.687600024
1719785815,199740239,0.001065264,-0.001065264,-0.002130529,0.248995703,-0.009576758,9.801811621,3996.8,1719785815,-2.042216657,-1.932832329,0.136759256,0.013634746,0.002398277,0.725959562,0.687598034
1719785815,202242205,0.001065264,0.003195793,-0.001065264,0.258572461,-0.004788379,9.801811621,3997,1719785815,-2.042215304,-1.932822387,0.136760459,0.013638439,0.002399256,0.725961374,0.687596044
1719785815,204735115,0,0,-0.002130529,0.253784082,0,9.8066,3997.2,1719785815,-2.042216707,-1.932822183,0.136759664,0.013632881,0.002395843,0.725959458,0.687598189
1719785815,207218362,0.002130529,0.002130529,-0.003195793,0.239418945,0,9.801811621,3997.4,1719785815,-2.042218111,-1.932821978,0.136758869,0.013627322,0.002392429,0.725957542,0.687600334
1719785815,209746792,0.002130529,0.003195793,-0.002130529,0.234630566,-0.004788379,9.801811621,3997.6,1719785815,-2.042219514,-1.932821774,0.136758073,0.013621764,0.002389016,0.725955626,0.687602479
1719785815,212229206,0.003195793,0.003195793,-0.003195793,0.234630566,-0.009576758,9.801811621,3997.8,1719785815,-2.042220918,-1.932821569,0.136757278,0.013616205,0.002385602,0.72595371,0.687604624
1719785815,214723012,0.003195793,0.002130529,-0.001065264,0.239418945,-0.009576758,9.801811621,3998,1719785815,-2.042222321,-1.932821365,0.136756483,0.013610647,0.002382189,0.725951794,0.687606769
1719785815,217229234,0.001065264,0.003195793,-0.002130529,0.239418945,-0.009576758,9.8066,3998.2,1719785815,-2.042223023,-1.932826385,0.136753749,0.013611719,0.002376846,0.725951048,0.687607553
1719785815,219770080,0.002130529,0.003195793,-0.003195793,0.239418945,-0.004788379,9.8066,3998.4,1719785815,-2.042223726,-1.932831405,0.136751015,0.01361279,0.002371503,0.725950303,0.687608338
1719785815,222217391,0.003195793,0.002130529,-0.004261058,0.239418945,-0.004788379,9.811388379,3998.6,1719785815,-2.042224428,-1.932836424,0.136748282,0.013613862,0.002366159,0.725949557,0.687609122
1719785815,224731069,0.001065264,0.003195793,-0.006391587,0.244207324,-0.004788379,9.816176758,3998.8,1719785815,-2.042225131,-1.932841444,0.136745548,0.013614933,0.002360816,0.725948812,0.687609907
1719785815,227241963,0.002130529,0.004261058,-0.004261058,0.248995703,-0.004788379,9.811388379,3999,1719785815,-2.042225833,-1.932846464,0.136742814,0.013616005,0.002355473,0.725948066,0.687610691
1719785815,227270186,0,0.004261058,-0.004261058,0.253784082,-0.004788379,9.8066,3999.2,1719785815,-2.042223935,-1.932851957,0.136740766,0.013620619,0.002354672,0.725952011,0.687606437
1719785815,229758681,0.002130529,0.003195793,-0.005326322,0.253784082,0,9.8066,3999.4,1719785815,-2.042222036,-1.93285745,0.136738718,0.013625233,0.002353872,0.725955956,0.687602183
1719785815,232224679,0.002130529,0.002130529,-0.003195793,0.253784082,0.004788379,9.8066,3999.6,1719785815,-2.042220138,-1.932862944,0.136736671,0.013629847,0.002353071,0.7259599,0.68759793
1719785815,237217188,0.003195793,0.001065264,-0.003195793,0.248995703,0.009576758,9.801811621,3999.8,1719785815,-2.042218239,-1.932868437,0.136734623,0.013634461,0.002352271,0.725963845,0.687593676
1719785815,239722578,0,0.001065264,-0.003195793,0.244207324,0.009576758,9.797023242,4000,1719785815,-2.042216341,-1.93287393,0.136732575,0.013639075,0.00235147,0.72596779,0.687589422
1719785815,242219168,0.002130529,0.001065264,-0.004261058,0.239418945,0,9.801811621,4000.2,1719785815,-2.042215606,-1.932874874,0.136733548,0.013635219,0.002351929,0.725964995,0.687592448
1719785815,244722862,0.005326322,0,-0.003195793,0.234630566,-0.004788379,9.8066,4000.4,1719785815,-2.042214872,-1.932875817,0.136734521,0.013631363,0.002352388,0.725962199,0.687595475
1719785815,247211101,0.002130529,0,-0.003195793,0.234630566,0,9.811388379,4000.6,1719785815,-2.042214137,-1.932876761,0.136735494,0.013627508,0.002352848,0.725959404,0.687598501
1719785815,249708779,0.004261058,0.001065264,-0.001065264,0.234630566,0,9.816176758,4000.8,1719785815,-2.042213403,-1.932877704,0.136736467,0.013623652,0.002353307,0.725956608,0.687601528
1719785815,252211769,0.007456851,-0.001065264,-0.002130529,0.229842188,-0.004788379,9.816176758,4001,1719785815,-2.042212668,-1.932878648,0.13673744,0.013619796,0.002353766,0.725953813,0.687604554
1719785815,254708967,0.003195793,0.003195793,-0.003195793,0.234630566,-0.004788379,9.811388379,4001.2,1719785815,-2.042211768,-1.932873092,0.136742171,0.013624045,0.002356011,0.725954353,0.687603892
1719785815,257210325,-0.001065264,0.004261058,-0.003195793,0.244207324,0,9.8066,4001.4,1719785815,-2.042210869,-1.932867537,0.136746901,0.013628294,0.002358255,0.725954893,0.68760323
1719785815,259719171,0.001065264,0.002130529,-0.001065264,0.248995703,0,9.801811621,4001.6,1719785815,-2.042209969,-1.932861981,0.136751632,0.013632542,0.0023605,0.725955433,0.687602567
1719785815,262207858,0.002130529,0.004261058,-0.004261058,0.248995703,0,9.797023242,4001.8,1719785815,-2.04220907,-1.932856426,0.136756362,0.013636791,0.002362744,0.725955973,0.687601905
1719785815,264715328,0.001065264,0.001065264,-0.003195793,0.253784082,0,9.801811621,4002,1719785815,-2.04220817,-1.93285087,0.136761093,0.01364104,0.002364989,0.725956513,0.687601243
1719785815,267202670,0.004261058,0.002130529,-0.003195793,0.258572461,0,9.8066,4002.2,1719785815,-2.042207206,-1.932841858,0.136760447,0.013643736,0.002357455,0.725957278,0.687600408
1719785815,269753723,0.002130529,-0.001065264,-0.002130529,0.258572461,-0.004788379,9.811388379,4002.4,1719785815,-2.042206243,-1.932832846,0.136759801,0.013646432,0.002349921,0.725958043,0.687599573
1719785815,272212362,0.001065264,0,-0.003195793,0.258572461,-0.004788379,9.811388379,4002.6,1719785815,-2.042205279,-1.932823834,0.136759155,0.013649127,0.002342387,0.725958807,0.687598737
1719785815,274732536,0.003195793,0.001065264,0.001065264,0.258572461,-0.009576758,9.811388379,4002.8,1719785815,-2.042204316,-1.932814822,0.136758509,0.013651823,0.002334853,0.725959572,0.687597902
1719785815,277213735,0.002130529,0,-0.003195793,0.258572461,-0.009576758,9.811388379,4003,1719785815,-2.042203352,-1.93280581,0.136757863,0.013654519,0.002327319,0.725960337,0.687597067
1719785815,279710421,0.002130529,0.001065264,-0.004261058,0.258572461,-0.009576758,9.8066,4003.2,1719785815,-2.042206188,-1.93280635,0.136752472,0.013655425,0.002330173,0.725959729,0.687597682
1719785815,282204355,0.002130529,0.001065264,0,0.258572461,-0.009576758,9.801811621,4003.4,1719785815,-2.042209024,-1.932806891,0.13674708,0.013656331,0.002333027,0.72595912,0.687598297
1719785815,284733233,0.004261058,0.002130529,-0.004261058,0.258572461,-0.009576758,9.797023242,4003.6,1719785815,-2.042211861,-1.932807431,0.136741689,0.013657237,0.00233588,0.725958512,0.687598911
1719785815,287225887,0.004261058,0.001065264,-0.002130529,0.248995703,-0.004788379,9.801811621,4003.8,1719785815,-2.042214697,-1.932807972,0.136736297,0.013658143,0.002338734,0.725957903,0.687599526
1719785815,287258494,0.003195793,0,-0.003195793,0.244207324,-0.004788379,9.801811621,4004,1719785815,-2.042217533,-1.932808512,0.136730906,0.013659049,0.002341588,0.725957295,0.687600141
1719785815,289775532,0.003195793,0.002130529,0,0.239418945,-0.004788379,9.811388379,4004.2,1719785815,-2.042218292,-1.93281778,0.136729914,0.013652272,0.002345757,0.725956813,0.68760077
1719785815,294703370,0.002130529,0.004261058,-0.002130529,0.229842188,-0.004788379,9.816176758,4004.4,1719785815,-2.042219052,-1.932827048,0.136728922,0.013645494,0.002349926,0.725956331,0.687601399
1719785815,297204088,0.002130529,0.001065264,-0.004261058,0.229842188,-0.004788379,9.811388379,4004.6,1719785815,-2.042219811,-1.932836315,0.13672793,0.013638717,0.002354096,0.725955849,0.687602028
1719785815,299734406,0.002130529,0.002130529,-0.002130529,0.234630566,-0.004788379,9.8066,4004.8,1719785815,-2.042220571,-1.932845583,0.136726938,0.013631939,0.002358265,0.725955367,0.687602657
1719785815,302213876,0.002130529,0.001065264,-0.004261058,0.234630566,-0.004788379,9.8066,4005,1719785815,-2.04222133,-1.932854851,0.136725946,0.013625162,0.002362434,0.725954885,0.687603286
1719785815,304717602,0.004261058,0,-0.002130529,0.239418945,0,9.811388379,4005.2,1719785815,-2.042221152,-1.932860235,0.136726357,0.013631493,0.002363048,0.72595443,0.687603639
