Time,header.seq,header.stamp.secs,header.stamp.nsecs,header.frame_id,pose.position.x,pose.position.y,pose.position.z,pose.orientation.x,pose.orientation.y,pose.orientation.z,pose.orientation.w
1719786224.556339,2010,1719786224,585231000,world,-2.0742874785522885,-1.9157458239171217,0.13657575839959307,0.01313614113735826,-0.0100800037305725,-0.004671813223477853,0.9998519937880886
1719786224.5749083,2011,1719786224,594781000,world,-2.074288460273001,-1.9157301489061358,0.1365558981377902,0.013130682764063564,-0.010090281262831456,-0.004700068763992356,0.9998518293966363
1719786224.5749373,2012,1719786224,604701000,world,-2.0742869667776174,-1.9157444947833526,0.13656723495150974,0.01315870359770139,-0.010061769399403049,-0.004688381060729799,0.9998518032184622
1719786224.5863533,2013,1719786224,614382000,world,-2.0742974378460155,-1.9157675407734776,0.1365676542922903,0.013174050989219315,-0.010110589176139632,-0.00469494641399031,0.9998510778337016
1719786224.5965793,2014,1719786224,624734000,world,-2.074300551957141,-1.915789303064787,0.1365690233372791,0.013133222007893932,-0.010160555635365628,-0.004655094093604402,0.9998512947873057
1719786224.6062858,2015,1719786224,634924000,world,-2.074290585313,-1.9157606488747694,0.13657033736518667,0.013141698187224903,-0.010153329210786221,-0.004678526347194853,0.9998511474544158
1719786224.616583,2016,1719786224,644685000,world,-2.0742976223272045,-1.9157504213252874,0.136571934938218,0.013165880896641927,-0.010139188695490915,-0.004685417147934206,0.9998509405401201
1719786224.6262286,2017,1719786224,654441000,world,-2.0743014846624472,-1.915765113976547,0.13657098634935846,0.013193590660892039,-0.010105162276576252,-0.004692661411058324,0.9998508857773335
1719786224.6361911,2018,1719786224,664249000,world,-2.0742991432175755,-1.9157842990611869,0.13657494208160706,0.01318722617770703,-0.010117411279635662,-0.004711681133976963,0.9998507564209913
1719786224.6462626,2019,1719786224,675173000,world,-2.0743056960352675,-1.9158360375459798,0.13659520316962345,0.013140067358165343,-0.010158496159260814,-0.004687118597767791,0.9998510761632732
1719786224.6566668,2020,1719786224,684436000,world,-2.074299449823531,-1.915841478848036,0.13659950227371528,0.013149720953965438,-0.010144704588030719,-0.004692091465395888,0.9998510659519922
1719786224.6664186,2021,1719786224,694373000,world,-2.0743051037468234,-1.9158021888158439,0.13657529306872085,0.013145326225503259,-0.010137655623999405,-0.004709911901240517,0.9998511114494782
1719786224.6762033,2022,1719786224,704376000,world,-2.0742954018950317,-1.9157726775421087,0.13656587183589178,0.013177007307206657,-0.010081115889704785,-0.004692656972679281,0.999851347226867
1719786224.6862924,2023,1719786224,715038000,world,-2.074291157698737,-1.9157842305827943,0.13656024143402773,0.013155897070626978,-0.010079360180118452,-0.004690446209282258,0.9998516532891188
1719786224.6966588,2024,1719786224,725280000,world,-2.0742985107872145,-1.9158079917512998,0.13655007349560452,0.013166631574333483,-0.010101872604313441,-0.004676577695086117,0.9998513497535192
1719786224.7069616,2025,1719786224,734380000,world,-2.0742936475400513,-1.9158146114139818,0.13656384956193152,0.013134313716905469,-0.010145565542454446,-0.004657454295740524,0.9998514216734868
1719786224.7070184,2026,1719786224,744165000,world,-2.0742815283605847,-1.915787404951186,0.1366000494851467,0.013138043295498674,-0.010109476894840782,-0.004704344644743349,0.9998515186950221
1719786224.7268133,2027,1719786224,754362000,world,-2.0742828124705186,-1.9157558383758857,0.13659146264316455,0.013119636723959757,-0.010091055323461565,-0.004701388489690847,0.9998519603826155
1719786224.737479,2028,1719786224,764253000,world,-2.0742812953109704,-1.9157709268913468,0.1365749963601815,0.013143139847279236,-0.010091638046035203,-0.0047132792828195645,0.9998515898446655
1719786224.7463362,2029,1719786224,774953000,world,-2.0742829782236827,-1.9157958953360217,0.13656975034824104,0.013135791714397712,-0.010134591351907977,-0.004689740720235613,0.9998513626365385
1719786224.7471693,2030,1719786224,784310000,world,-2.0742776307195188,-1.9158073893297431,0.13656923224386489,0.013160506681736612,-0.01014736405835828,-0.004679651248620984,0.9998509553582166
1719786224.766628,2031,1719786224,794622000,world,-2.0742806201881727,-1.9157714709769313,0.13656500013221184,0.013156546954424446,-0.010141113445257754,-0.004705540877702566,0.9998509493796438
1719786224.7771626,2032,1719786224,808619000,world,-2.0742819724182544,-1.9157474718105163,0.13659016475695365,0.013153147256636959,-0.010092936775335383,-0.004714653866374236,0.9998514386564711
1719786224.7869737,2033,1719786224,817991000,world,-2.074280250944595,-1.915758238428977,0.13660740679761374,0.013142353730938366,-0.010080176967648674,-0.004711337627232163,0.9998517249414905
1719786224.7964296,2034,1719786224,825762000,world,-2.0742853791970837,-1.9157727440446246,0.13658625031576846,0.01314615426772358,-0.010104585042461887,-0.004700568133751712,0.9998514792949545
1719786224.8068702,2035,1719786224,834841000,world,-2.0742879105994767,-1.9157879582785335,0.13657059865572357,0.013173992433678845,-0.010121638277506884,-0.004715617585990449,0.9998508695364123
1719786224.8174517,2036,1719786224,845005000,world,-2.0742810859868634,-1.9157801955980842,0.13656912392147574,0.01315934720021074,-0.010155445296989482,-0.004694578595072978,0.9998508185944035
1719786224.8273783,2037,1719786224,854796000,world,-2.0742853023812886,-1.9157860507083564,0.13656935714852764,0.013174656324786352,-0.010103776114716585,-0.0046929526394607814,0.99985114808879
1719786224.8274088,2038,1719786224,863818000,world,-2.0742747762484406,-1.9157447628189401,0.13656824707927376,0.013136214971337223,-0.01008564581389017,-0.004707386726135213,0.9998517690712732
1719786224.846336,2039,1719786224,876409000,world,-2.0742682896168017,-1.9157403531576616,0.13657056334877196,0.01313166540324929,-0.010090600949933214,-0.004723703857742219,0.9998517018828698
1719786224.846634,2040,1719786224,884449000,world,-2.074275437509114,-1.9157638480791164,0.13655374080208882,0.01314540825786646,-0.010109981940966645,-0.0046964112856181135,0.9998514540810168
1719786224.866245,2041,1719786224,894860000,world,-2.074277077303992,-1.9157640604491442,0.1365629912362596,0.01314969824589331,-0.010130507442098343,-0.004713524792323772,0.9998511093853123
1719786224.876729,2042,1719786224,904900000,world,-2.074276015975616,-1.9157630425243768,0.13657988642547444,0.013142018425772225,-0.010142007073764043,-0.004712639107676457,0.9998510979525167
1719786224.8862507,2043,1719786224,914355000,world,-2.074276299936069,-1.9157500286610505,0.13658538681510005,0.013120264823941078,-0.01010262432151381,-0.004703980882562373,0.9998518231201186
1719786224.896219,2044,1719786224,925631000,world,-2.0742786196494514,-1.91573646190111,0.13658026422240227,0.013164031390330115,-0.010070613736199104,-0.0047211039328726835,0.9998514900694931
1719786224.907811,2045,1719786224,934484000,world,-2.074278543988353,-1.9157475881537969,0.13656165162211004,0.013148989569620718,-0.010067315181534591,-0.00470896188998389,0.9998517784733157
1719786224.9078531,2046,1719786224,944028000,world,-2.074282609151881,-1.9157791135921296,0.13655408285168003,0.013152406315122923,-0.01011797187877657,-0.00468309909060809,0.9998513436686924
1719786224.9262168,2047,1719786224,954505000,world,-2.074283592062156,-1.9157826046941473,0.13656450650392898,0.01312578471748954,-0.010135683223674854,-0.004683110548628583,0.9998515140643278
1719786224.9362297,2048,1719786224,964246000,world,-2.0742882969598297,-1.9157589976069336,0.1365720325829317,0.01315034919747206,-0.010090968219460258,-0.004687960399800866,0.9998516208436471
1719786224.9462197,2049,1719786224,975779000,world,-2.0742757280021302,-1.9157511984953666,0.13659720335315184,0.013117300775407733,-0.010063287393615984,-0.004727546885310315,0.9998521475536511
1719786224.95622,2050,1719786224,984927000,world,-2.074275220427999,-1.915766034908002,0.13659390944313207,0.013127576940083758,-0.010088697923928785,-0.004687734129673708,0.9998519440630255
1719786224.9663455,2051,1719786224,994866000,world,-2.074274608637426,-1.9157815542633712,0.13656879994966328,0.013109279013403457,-0.010143163971612744,-0.004692502126093323,0.9998516107164056
1719786224.9765964,2052,1719786225,4560000,world,-2.07428895366069,-1.91579054343019,0.13657153337906652,0.013103158880784681,-0.010141408509124324,-0.004690503573925515,0.9998517181247523
1719786224.9862285,2053,1719786225,14514000,world,-2.074283090841206,-1.9157727835180738,0.1365806409854724,0.013105810434467714,-0.010144683946436707,-0.0047122516748004445,0.9998515478833025
1719786224.9962854,2054,1719786225,25053000,world,-2.0742705935588583,-1.9157442350909408,0.13656071656276533,0.013112318089864966,-0.010076023414984914,-0.0046971012094842845,0.9998522281350773
1719786225.006235,2055,1719786225,35352000,world,-2.0742792499096265,-1.9157341285394103,0.1365609370432459,0.01311084644018561,-0.010097299694341881,-0.004721860613004194,0.9998519161740183
1719786225.0164676,2056,1719786225,44272000,world,-2.0742829961745444,-1.915764242046238,0.13657185136963232,0.013138340612380346,-0.01011172199002016,-0.00469001786397266,0.9998515593910856
1719786225.0262785,2057,1719786225,54109000,world,-2.0742918694484196,-1.9157778574275484,0.13655632157224104,0.013160824143735766,-0.01012269494113559,-0.004697050369569213,0.9998511196537273
1719786225.036288,2058,1719786225,64662000,world,-2.0742889743530983,-1.9157993014968482,0.13657220282174734,0.013142204989422463,-0.010125364653040524,-0.0046870258034315835,0.9998513845706155
1719786225.0462313,2059,1719786225,75173000,world,-2.074290170027381,-1.915791758207314,0.13657909395798407,0.013149680121393503,-0.010111963442240303,-0.004723244298130785,0.999851251472612
1719786225.0562022,2060,1719786225,84548000,world,-2.074290137750743,-1.9157753085310045,0.13656473840033506,0.013126581012041446,-0.010096175985469061,-0.004719861683539893,0.9998517305116259
1719786225.0662253,2061,1719786225,94277000,world,-2.074295673396061,-1.9157635544677931,0.13654814840531207,0.013118156098760957,-0.010074723405889573,-0.004697361333328002,0.9998521634348589
1719786225.076213,2062,1719786225,104395000,world,-2.0742925153959915,-1.9157958883149364,0.13657282771463589,0.01313751421194099,-0.01008076249539019,-0.004697694850066379,0.9998518468307884
1719786225.086339,2063,1719786225,115369000,world,-2.074295868436453,-1.9158200585219833,0.13657544929301463,0.013118913305476255,-0.010138903530064426,-0.004713306705330783,0.9998514297078306
1719786225.096248,2064,1719786225,128875000,world,-2.0742916499014443,-1.915797499029756,0.136565067660455,0.013160782451247126,-0.010081354736848906,-0.004703526693372202,0.9998515074392726
1719786225.1062193,2065,1719786225,137474000,world,-2.074295293765076,-1.9157832996230089,0.13657532409374198,0.013141782181888113,-0.010092164721571035,-0.0047031049061340546,0.9998516502844603
1719786225.1162548,2066,1719786225,145227000,world,-2.074290895534849,-1.9157892011185764,0.13657828264160166,0.013141634841058214,-0.01009050059532478,-0.004734289601469624,0.9998515218438233
1719786225.1267996,2067,1719786225,154475000,world,-2.074286353860054,-1.9157959668310276,0.13657147242288747,0.013132702034316605,-0.010089793478932298,-0.004713743091706262,0.9998517434254419
1719786225.1362097,2068,1719786225,164413000,world,-2.074299489274504,-1.9158325981172257,0.13655986999458708,0.013174545035247434,-0.010114021979076555,-0.004696426814829225,0.9998510296527648
1719786225.1467032,2069,1719786225,175363000,world,-2.0742955539225836,-1.9158301637739688,0.13656244876774004,0.01316065748251879,-0.010138579230530362,-0.004705073227412394,0.9998509231839209
1719786225.156972,2070,1719786225,184434000,world,-2.074284983517542,-1.9158162718544527,0.13656943994686516,0.01314816872493769,-0.010091918827781632,-0.004704251531295878,0.9998515634088314
1719786225.1665757,2071,1719786225,194953000,world,-2.0742760429141756,-1.915792197600306,0.13657504507809826,0.013148713223098083,-0.010071697214756405,-0.004703390666620503,0.9998517641990877
1719786225.1763136,2072,1719786225,208850000,world,-2.0742766632685528,-1.915789033152246,0.13659245879939427,0.01314657307474561,-0.010086910476325416,-0.0047134093702107605,0.9998515918002742
1719786225.1862338,2073,1719786225,218729000,world,-2.0742877752272926,-1.9158134677406256,0.13658440599256338,0.013154601369801913,-0.010085154817664468,-0.004686927398864893,0.9998516284062666
1719786225.1963425,2074,1719786225,226111000,world,-2.074287643866926,-1.9158081058970715,0.1365612267001472,0.013146613601007752,-0.010096239135807178,-0.0047059707873859285,0.9998515321511923
1719786225.206306,2075,1719786225,234734000,world,-2.074263623409494,-1.9157921822153825,0.13658324357406668,0.013167399645981761,-0.01006385593648739,-0.004677965146401156,0.999851716522176
1719786225.2162328,2076,1719786225,244846000,world,-2.074281969175753,-1.915795600764979,0.13659742715441547,0.013158323992739664,-0.010074491342496786,-0.004720119264706324,0.9998515307824553
1719786225.226482,2077,1719786225,254463000,world,-2.074275792312706,-1.9157936156685784,0.13658152115127337,0.013152460123849902,-0.010053979583366306,-0.004727021244142731,0.9998517817943744
1719786225.226505,2078,1719786225,263911000,world,-2.0742708862355173,-1.9157970789927503,0.13656738971709928,0.013141599603282332,-0.01008788434317219,-0.004695500372525478,0.9998517316210426
1719786225.246217,2079,1719786225,276247000,world,-2.0742684360713186,-1.9158087589075035,0.13656200293939444,0.013138600991172972,-0.01010095708431943,-0.0047040994333228635,0.9998515986277648
1719786225.256341,2080,1719786225,284370000,world,-2.0742619464036514,-1.9157902586048605,0.1365588518932327,0.013149865341142635,-0.010088145670720085,-0.004697502141130403,0.9998516109063735
1719786225.2662096,2081,1719786225,294678000,world,-2.074264511014709,-1.915765934329003,0.13655399092918938,0.013139254423560585,-0.010055129314281435,-0.004709956666036733,0.9998520243895446
1719786225.2762773,2082,1719786225,304969000,world,-2.0742664816103735,-1.9157656877308693,0.13657255758703088,0.013113825961502627,-0.01004325050880195,-0.004701150124079942,0.9998525190623764
1719786225.286219,2083,1719786225,314167000,world,-2.0742544003967742,-1.9157584589822454,0.13657980062873368,0.013114389867720679,-0.010075083135566529,-0.004729593444754895,0.9998520572685022
1719786225.2962403,2084,1719786225,325588000,world,-2.074260938166969,-1.9157761600970487,0.13655252631841075,0.013105605065347775,-0.010108544175029884,-0.004699016611790841,0.9998519788915831
1719786225.3066669,2085,1719786225,334407000,world,-2.0742597372054328,-1.915795806537086,0.13655221176841217,0.013110540129431731,-0.010145793673928498,-0.004705403353072411,0.9998515068686578
1719786225.3162258,2086,1719786225,344222000,world,-2.0742639540380643,-1.9157650470931902,0.13656200895946144,0.013123022854076937,-0.010107736207418677,-0.004698638890422769,0.9998517603787626
1719786225.3264241,2087,1719786225,354782000,world,-2.0742568887887063,-1.9157128215284573,0.13655653207654594,0.013115746889249347,-0.010084916194133745,-0.004709992050572432,0.9998520328647524
1719786225.3362064,2088,1719786225,363988000,world,-2.074260799738935,-1.9157215441343696,0.13658007531972988,0.013140714144496872,-0.010093595847985077,-0.004698267908015929,0.9998516726161409
1719786225.3462787,2089,1719786225,376083000,world,-2.0742617015060785,-1.915722237537126,0.13659232374174926,0.013108660187249974,-0.010108556619748226,-0.004703981020789782,0.99985191537233
1719786225.3562212,2090,1719786225,384735000,world,-2.0742569714165024,-1.9157271565035712,0.136574452783577,0.013136961816540178,-0.010126919005241191,-0.004684675341139764,0.9998514487475828
1719786225.3662374,2091,1719786225,394148000,world,-2.0742616927504263,-1.9157312110180662,0.13656359117079883,0.013124097242426065,-0.01013444367007265,-0.004684957603758164,0.9998515401274933
1719786225.3761961,2092,1719786225,404662000,world,-2.0742523519102165,-1.915729103698548,0.13659358142707154,0.01311006828314975,-0.010159152411045966,-0.0046957469245967635,0.9998514228087694
1719786225.3862047,2093,1719786225,414307000,world,-2.074268563964733,-1.9157359556829339,0.13660190107781706,0.013148483140184214,-0.01008855902688722,-0.00468626037298162,0.9998516776660378
1719786225.3962955,2094,1719786225,424994000,world,-2.074271019550979,-1.9157425005186677,0.13659122392464504,0.013138189161444564,-0.01008379001823352,-0.004691186522236919,0.9998518379907295
1719786225.406216,2095,1719786225,435234000,world,-2.074275885369774,-1.915765807382267,0.13659571062892203,0.0131370139706298,-0.010091907533293122,-0.004698662447914328,0.9998517364276943
1719786225.4162095,2096,1719786225,444083000,world,-2.0742757041666633,-1.9157635459988323,0.13658688825301632,0.013151641180086441,-0.01010937842708845,-0.004683294059060436,0.9998514397443475
1719786225.4263737,2097,1719786225,454101000,world,-2.0742655056957444,-1.9157627842459228,0.1365817204798177,0.013128827735674822,-0.010145084757996678,-0.004694921465564651,0.9998513233726165
1719786225.436806,2098,1719786225,468776000,world,-2.074268440108326,-1.9157518528768047,0.13660684023522243,0.013163796198033487,-0.01008979907542977,-0.00472172481516348,0.9998512968132033
1719786225.4469373,2099,1719786225,478659000,world,-2.074271197110269,-1.9157537603173889,0.13660494732477413,0.013139349189302502,-0.010087820513990951,-0.004695625798725403,0.9998517612518957
1719786225.456471,2100,1719786225,486610000,world,-2.0742688475237907,-1.9157603839884003,0.13657821443511356,0.013138149561981184,-0.01010574751622853,-0.004704269201115204,0.9998515553543481
1719786225.4665372,2101,1719786225,494908000,world,-2.0742684628339476,-1.9157797854559893,0.13657518007356792,0.013161982267092599,-0.010082427805001643,-0.004684247678901567,0.9998515713324857
1719786225.4761953,2102,1719786225,504339000,world,-2.074268780822032,-1.9157871471542165,0.13657886532982427,0.013204378492201345,-0.010124980153909108,-0.00468865167575149,0.9998505616895863
1719786225.4862533,2103,1719786225,515422000,world,-2.074269053433345,-1.9157659446215265,0.13658378142819305,0.013192520428675818,-0.010124720532487396,-0.0046871535027646575,0.9998507278743762
1719786225.4963045,2104,1719786225,524839000,world,-2.074273360974394,-1.9157496952586845,0.13659459808102084,0.013135363327652722,-0.010114475705019806,-0.004719836718305423,0.9998514303399361
1719786225.506234,2105,1719786225,538171000,world,-2.0742783283974666,-1.9157764608001995,0.13660681851415402,0.013135987305955932,-0.010096463273675233,-0.004685857949154195,0.999851764014117
1719786225.5162432,2106,1719786225,548867000,world,-2.074274711295043,-1.9157972806375787,0.13658486100863915,0.013148938541070621,-0.010122281919211556,-0.004708390017873403,0.9998512268769943
1719786225.5262258,2107,1719786225,556226000,world,-2.0742781315237986,-1.915804528512982,0.13656348275832939,0.01314314508648578,-0.010153277803589175,-0.004694260794245376,0.9998510552090618
1719786225.536276,2108,1719786225,565340000,world,-2.0742764289068103,-1.9157811683720443,0.13657135926753966,0.013150924509236123,-0.010134200455722534,-0.004702468062098924,0.9998511078954709
1719786225.5465658,2109,1719786225,574892000,world,-2.0742771996988325,-1.9157699095962326,0.1366031120028582,0.013144956269629688,-0.010084990534070087,-0.004697567798957534,0.9998517069782757
1719786225.5565805,2110,1719786225,584620000,world,-2.0742755128471866,-1.91576244242325,0.1365872085667423,0.0131679559343114,-0.01007779945884636,-0.004712988484534568,0.9998514042767177
1719786225.5666316,2111,1719786225,594828000,world,-2.0742719630467032,-1.9157771010087916,0.13656213625018956,0.013126756327944047,-0.01014706615970172,-0.0047123231503633355,0.9998512486001025
1719786225.5762753,2112,1719786225,604736000,world,-2.074276757090701,-1.9158052039236273,0.13658779371567253,0.013146669971570551,-0.01011677022368181,-0.0046578636710265875,0.9998515491486334
1719786225.576371,2113,1719786225,613928000,world,-2.0742845705255903,-1.9157835139889356,0.13660097044247207,0.013133581832606525,-0.010147707508724417,-0.004680520841925615,0.9998513018370343
1719786225.5962045,2114,1719786225,624936000,world,-2.0742767635528008,-1.9157530538063767,0.13661813915109458,0.013147238164074353,-0.01011380536189553,-0.004681951850155158,0.9998514591661262
1719786225.6062453,2115,1719786225,634583000,world,-2.0742762129127623,-1.9157464852873147,0.13663102365873991,0.013138977403443618,-0.010101482278692247,-0.004717954791406781,0.9998515230928797
1719786225.616202,2116,1719786225,645467000,world,-2.07428587796936,-1.915773716075118,0.13661052576729157,0.013147654972300969,-0.010131232678783615,-0.004710976963162446,0.9998511409150815
1719786225.6265423,2117,1719786225,654898000,world,-2.0742819156971413,-1.9157943093391891,0.13659125124695545,0.013156399318549884,-0.010129368559827205,-0.0047251629539801065,0.9998509778385019
1719786225.6362884,2118,1719786225,664068000,world,-2.0742706802665634,-1.9157879382687544,0.13660863742767487,0.013153644012664953,-0.010117472790580681,-0.004693874682286867,0.9998512819084583
1719786225.6462257,2119,1719786225,676452000,world,-2.0742761645642434,-1.9157640484034508,0.13662321919010034,0.013139251034109468,-0.010128314150929458,-0.0047028964238910315,0.9998513189969541
1719786225.656233,2120,1719786225,684322000,world,-2.0742773921588302,-1.9157502993026365,0.1366389970611734,0.013146130983355568,-0.010079779395441982,-0.004705421196457869,0.9998517071540517
1719786225.666216,2121,1719786225,694145000,world,-2.0742894355926382,-1.9157648648027603,0.13663145375087388,0.013131301211610616,-0.01008123759782415,-0.004702375658774076,0.9998519016535149
1719786225.6764476,2122,1719786225,706051000,world,-2.074282975048808,-1.9157778878382896,0.1366175553979238,0.013157513455983325,-0.010135821739631023,-0.0047080592341515,0.999850978464074
1719786225.6865957,2123,1719786225,714311000,world,-2.074281242332749,-1.9157785033048462,0.13660971278951126,0.01314829330526552,-0.010131691416492825,-0.004678755540402589,0.9998512791704539
1719786225.6962404,2124,1719786225,726338000,world,-2.074277350635957,-1.9157729390186655,0.13660018712351013,0.01312423193368864,-0.010154992130213708,-0.004692479090383241,0.999851294598838
1719786225.706214,2125,1719786225,734671000,world,-2.074283445422389,-1.9157573452737715,0.13662469844864233,0.013143468687754938,-0.010136980974955046,-0.004701872994617693,0.99985118054534
1719786225.71622,2126,1719786225,744207000,world,-2.0742815660279557,-1.915757816324088,0.1366285880894668,0.013141795450335962,-0.010104855665194302,-0.0046999266543721035,0.9998515368762358
1719786225.726233,2127,1719786225,755479000,world,-2.074282942962676,-1.9157694366592168,0.13661744188547234,0.013123632721446376,-0.010109207615407125,-0.004698444641235025,0.999851738411018
1719786225.7362723,2128,1719786225,764285000,world,-2.074282019710761,-1.915781495537839,0.13661513840403017,0.013138680818001396,-0.010133654327233742,-0.0046860217694065665,0.9998513516099858
1719786225.746542,2129,1719786225,775704000,world,-2.074279671951216,-1.9157880776955603,0.13663537735950357,0.013130981623884484,-0.01014415245486553,-0.0046998978750466686,0.9998512811676193
1719786225.756196,2130,1719786225,784734000,world,-2.0742797175934364,-1.9157913080791196,0.13664032681989274,0.013108754200120492,-0.010166460692371029,-0.004683065539209121,0.9998514252315025
1719786225.7661955,2131,1719786225,794283000,world,-2.074271503272648,-1.9157542526097002,0.1366298872352363,0.013116145876950197,-0.010125125989457931,-0.004706792636265258,0.9998516363161644
1719786225.7762096,2132,1719786225,804533000,world,-2.074274693460318,-1.9157710206679293,0.13662705915771126,0.013126793103893922,-0.01012416701297728,-0.004701155584784121,0.9998515328193824
1719786225.786477,2133,1719786225,814477000,world,-2.074279362197764,-1.9158006028352519,0.13663311428454733,0.013124564924948208,-0.010151024474321844,-0.004699329730300085,0.9998512983427779
1719786225.7962039,2134,1719786225,824815000,world,-2.0742724867596998,-1.9157899208349032,0.13663416453130375,0.013156052122811337,-0.010133901864009922,-0.0046776751940544115,0.9998511597634577
1719786225.806292,2135,1719786225,835292000,world,-2.074261619114454,-1.915791098844575,0.13663671813139897,0.013111852075645705,-0.010179657506721958,-0.004687819640446913,0.9998512280610605
1719786225.8068755,2136,1719786225,844093000,world,-2.0742678435190203,-1.9157759834226775,0.13665122309206174,0.013114626433186151,-0.010136045783851976,-0.004687229573326332,0.9998516375084419
1719786225.8263893,2137,1719786225,854283000,world,-2.0742681285894813,-1.9157536374338195,0.136639738979454,0.013110225652087476,-0.010095878051341715,-0.004698875750990527,0.9998520469531484
1719786225.8265903,2138,1719786225,864918000,world,-2.074276899592014,-1.915782856961522,0.13661881788245378,0.013133637776328809,-0.01011410484202208,-0.004703427329454197,0.999851534085617
1719786225.8462098,2139,1719786225,875095000,world,-2.074263111210453,-1.915803848179121,0.13662125136479167,0.013134614040799842,-0.0101291298046591,-0.004685776709248822,0.9998514520367666
1719786225.856209,2140,1719786225,884701000,world,-2.074264041151125,-1.9157887207751751,0.1365939260789555,0.01313289922212694,-0.010134484089838365,-0.0046845914650573825,0.9998514258593922
1719786225.8665287,2141,1719786225,894255000,world,-2.0742794063920003,-1.9157636864273464,0.13658837113822356,0.013127381439234509,-0.01012850352899537,-0.004700168866478849,0.9998514858144877
1719786225.876207,2142,1719786225,904608000,world,-2.074285718015041,-1.915756647591608,0.13662797353226624,0.013148206193489144,-0.010081147874244452,-0.004704330884586881,0.9998516712004634
1719786225.8862057,2143,1719786225,915418000,world,-2.074287244426601,-1.9157719824951058,0.13661165060276256,0.01313762597775549,-0.010081158555188069,-0.004701969047868931,0.9998518212779965
1719786225.8962092,2144,1719786225,928597000,world,-2.0742853793837,-1.9157874448725016,0.13659718202887697,0.013161187200573977,-0.01010274937904436,-0.004683622899586524,0.999851379597483
1719786225.9065263,2145,1719786225,937567000,world,-2.074285602641386,-1.915795392581697,0.13662105791701726,0.013180263882709825,-0.010103541128262906,-0.004697910160130161,0.9998510532778265
1719786225.9162161,2146,1719786225,946244000,world,-2.074293868861382,-1.9157990387471215,0.1366295846108395,0.013158782030570233,-0.010106676489454108,-0.004682081656960057,0.9998513787844506
1719786225.926218,2147,1719786225,955591000,world,-2.074288596738211,-1.9157926362903714,0.13663705216883168,0.013148891572672027,-0.010073738375879403,-0.004710363394356232,0.9998517084659294
1719786225.9361956,2148,1719786225,965303000,world,-2.07428834098972,-1.9157983845110957,0.1366214016974269,0.013157195385831337,-0.010034070735561187,-0.0047370805833621835,0.9998518718798299
1719786225.9462008,2149,1719786225,974767000,world,-2.0742845952672573,-1.9158122878352477,0.1365959312089233,0.013129979887231738,-0.010074141433942486,-0.004716956819132968,0.9998519218468784
1719786225.9561965,2150,1719786225,984562000,world,-2.074284080247718,-1.9158108850229412,0.13659801828900425,0.013152136045587745,-0.010086561153796027,-0.004712278236849971,0.9998515274956316
1719786225.96622,2151,1719786225,994907000,world,-2.07428337135322,-1.9157889919914577,0.13660609970813478,0.013123786499029013,-0.010103604658484424,-0.0047105912702695985,0.9998517358742333
1719786225.9762123,2152,1719786226,4961000,world,-2.074288460675841,-1.915777307850126,0.1366343373748395,0.013105699297629551,-0.010121066270502507,-0.0046816811137338704,0.999851932300687
1719786225.9863243,2153,1719786226,14017000,world,-2.0742925882353305,-1.915753538505847,0.1366549041111811,0.013090902771213265,-0.010094968629930716,-0.00467498228284765,0.9998524213170914
1719786225.9963534,2154,1719786226,25152000,world,-2.074299116235142,-1.9157538406343524,0.13663824438224675,0.0131128228358592,-0.010138410647622957,-0.004702077766131415,0.9998515674696403
1719786226.0068088,2155,1719786226,34649000,world,-2.074285567573842,-1.915757537100974,0.13661114125103696,0.013123799392464448,-0.010184934689678874,-0.004668535997328379,0.9998511077988137
1719786226.0163932,2156,1719786226,45032000,world,-2.074283966473439,-1.9157546523973863,0.1366167590111169,0.01312279132489495,-0.010173671666345818,-0.004672732534761546,0.9998512160933382
1719786226.0263436,2157,1719786226,54903000,world,-2.074289572363841,-1.9157550667235188,0.13660598544598448,0.013139563119601867,-0.010173684702313047,-0.004691410844118027,0.9998509082282696
1719786226.026452,2158,1719786226,63952000,world,-2.074284008198854,-1.9157389830285088,0.13662263451580622,0.013172545927438188,-0.010138524743160264,-0.004698636549717176,0.9998507974514975
1719786226.04623,2159,1719786226,76480000,world,-2.0742826651811064,-1.915763040270334,0.13665925896498446,0.01313939739851676,-0.010143413349869214,-0.004706041364825156,0.9998511492098664
1719786226.0564752,2160,1719786226,84709000,world,-2.074290580862449,-1.915761350521649,0.13664225873666414,0.013133296623155422,-0.010174209691054615,-0.004679872467203848,0.9998510392906842
1719786226.0662246,2161,1719786226,93995000,world,-2.074282713187848,-1.9157593615506217,0.136615503668931,0.013137352408079865,-0.010184159492860272,-0.0046919087100961996,0.9998508283037956
1719786226.0762465,2162,1719786226,105525000,world,-2.0742895713210574,-1.915767381548059,0.13661924940113165,0.013177029134350357,-0.010164598354946236,-0.00470678726197781,0.9998504353137752
1719786226.0775576,2163,1719786226,114052000,world,-2.074298044506594,-1.915769928552967,0.13662328967606743,0.013131669943733272,-0.010179817876591626,-0.004687530789644219,0.9998509676984789
1719786226.0962024,2164,1719786226,124528000,world,-2.0742956458169055,-1.915763320610732,0.13663964614401536,0.013141488504276204,-0.010116744174332056,-0.004685783974196811,0.9998514870698301
1719786226.1062639,2165,1719786226,134694000,world,-2.0742895071296457,-1.9157817137703783,0.13665361929270037,0.013115642545417782,-0.010171413725971917,-0.004678642219395669,0.9998513052301421
1719786226.106712,2166,1719786226,144194000,world,-2.0742933746338728,-1.915794120924739,0.1366624098894743,0.013128466445632602,-0.010135340084270496,-0.004680745130353996,0.9998514934104898
1719786226.1262054,2167,1719786226,155536000,world,-2.074296423176058,-1.9157696041235217,0.13663846851863376,0.01312381410394264,-0.010165346844729542,-0.004678210030742009,0.9998512617273632
1719786226.136236,2168,1719786226,164232000,world,-2.0742831259730368,-1.915742186129381,0.13663080756027718,0.013136700713146127,-0.010147513334801725,-0.004700119444218361,0.9998511708973008
1719786226.146196,2169,1719786226,175281000,world,-2.0742788699529235,-1.9157524810915652,0.13664811226935644,0.013134868029058468,-0.010132157055794356,-0.004691231999638464,0.9998513924466883
1719786226.156193,2170,1719786226,184951000,world,-2.0742790512651035,-1.9157780456118705,0.13665719187804917,0.013140313660779624,-0.01012020276889981,-0.004669276737177418,0.9998515447342994
1719786226.1662135,2171,1719786226,194169000,world,-2.0742791793136632,-1.9157989941301803,0.13664304239663766,0.013110492457446738,-0.01015209112258305,-0.004673817536540801,0.9998515917189896
1719786226.176457,2172,1719786226,205213000,world,-2.074284972817554,-1.9157957247131108,0.1366447540236072,0.013131732983654566,-0.010150582643125029,-0.004673322444108454,0.9998513306077982
1719786226.1862106,2173,1719786226,214349000,world,-2.0742818773095886,-1.915774165146738,0.13664153520630404,0.013106620022022534,-0.01012602535776566,-0.004677432834972348,0.999851889903763
1719786226.1962264,2174,1719786226,225331000,world,-2.0742924206825135,-1.9157555800907544,0.13662721824599927,0.013150864791925019,-0.010116050721407746,-0.004674753869979528,0.9998514224369947
1719786226.206195,2175,1719786226,235449000,world,-2.0742832762743553,-1.915746419641971,0.13661670494772912,0.013121980546106258,-0.01012284402990266,-0.004697445295766668,0.9998516268241942
1719786226.21621,2176,1719786226,244200000,world,-2.074280702709791,-1.9157818793987655,0.13661344161795277,0.013134488916278376,-0.010169356656739377,-0.004679844541639177,0.999851073130975
1719786226.2262304,2177,1719786226,254816000,world,-2.0742752068653094,-1.9157878774094415,0.13661861360398586,0.013143243780342815,-0.010146595635067502,-0.0046922535825352565,0.9998511311671684
1719786226.2369735,2178,1719786226,264339000,world,-2.0742759493779563,-1.9157771942007091,0.1366188305232558,0.013151054135096145,-0.010126579493366088,-0.00469542717160183,0.9998512164950226
1719786226.2462797,2179,1719786226,274629000,world,-2.074277214536057,-1.9157817797485959,0.1366287318204023,0.01312427137672728,-0.010121364802216305,-0.004689522761367194,0.9998516489217996
1719786226.2564406,2180,1719786226,284625000,world,-2.074287585508223,-1.9157939885654114,0.13665274360695812,0.013158229926556101,-0.010118685522431056,-0.0046863912335453626,0.9998512443987376
1719786226.266453,2181,1719786226,294382000,world,-2.074294031329917,-1.9157791606370462,0.13662161958180113,0.013146130324498179,-0.010144300807066584,-0.0046909635305745065,0.9998511225576445
1719786226.2762954,2182,1719786226,304421000,world,-2.074288458804126,-1.9157663684765174,0.13660315921867272,0.0131748450746378,-0.010109764885625537,-0.004688636300947795,0.9998511053156137
1719786226.2864907,2183,1719786226,315509000,world,-2.074288996886132,-1.9157795665630186,0.136638476260358,0.013145611464489388,-0.010144427204395456,-0.0046715551982341235,0.9998512189660766
1719786226.2963293,2184,1719786226,324900000,world,-2.0742789027311144,-1.9157612246425226,0.13664613483096522,0.013152425813354428,-0.010102265671927933,-0.004669335950592748,0.9998515665964116
1719786226.306229,2185,1719786226,334571000,world,-2.074273795995174,-1.9157548799358002,0.13663598621702122,0.01313322871522855,-0.010145446220857304,-0.004665611614649251,0.9998513991052643
1719786226.3162737,2186,1719786226,344433000,world,-2.074280089185286,-1.9157709474263183,0.13663765113223564,0.013156741534711228,-0.01011912731992255,-0.004680924338574263,0.9998512851228469
1719786226.326218,2187,1719786226,354435000,world,-2.0742798519866814,-1.9157758371555378,0.13662320047476814,0.013148444061445275,-0.01013540018061676,-0.004651528314473407,0.9998513666372025
1719786226.3363347,2188,1719786226,365038000,world,-2.0742882548569574,-1.9157649525162466,0.13661928298331277,0.013177990729171923,-0.010158661006159433,-0.004683256470318213,0.9998505934767139
1719786226.3462262,2189,1719786226,378386000,world,-2.0742760795134303,-1.9157561967849956,0.13665190200161972,0.013159659677090083,-0.010142481667829915,-0.004687297542798646,0.999850980228827
1719786226.3562052,2190,1719786226,387720000,world,-2.074277927858035,-1.915750569177918,0.13666436565971865,0.01316210607447978,-0.01012912170358837,-0.0046893013626398555,0.9998510740654972
1719786226.3667166,2191,1719786226,396438000,world,-2.0742792514630706,-1.9157670052545126,0.1366469280498461,0.013160635442774437,-0.01011976581465255,-0.004680456596559697,0.999851229604008
1719786226.376337,2192,1719786226,405482000,world,-2.074276982449671,-1.9157673617504951,0.1366302268837437,0.013142740141413641,-0.010134691229523665,-0.004691124727798142,0.9998512638207974
1719786226.376488,2193,1719786226,413919000,world,-2.074283305033431,-1.9157965740419887,0.13662229664092151,0.013148109217177838,-0.010145364134562776,-0.004669587425768264,0.9998511858091
1719786226.396398,2194,1719786226,425065000,world,-2.0742913998445776,-1.9157866469555342,0.1366297740786143,0.013155841851716938,-0.01016621696734676,-0.004704699595872136,0.9998507076856314
1719786226.4062114,2195,1719786226,434925000,world,-2.074297445854797,-1.915771683235432,0.1366420375794492,0.013172481696011932,-0.010108890911691095,-0.0046913343155444345,0.9998511326356757
1719786226.4164567,2196,1719786226,445072000,world,-2.0742903462950286,-1.9157877296072747,0.1366238712332288,0.01315358878831034,-0.010130106332047386,-0.004693986922717415,0.999851154189692
1719786226.4264853,2197,1719786226,454888000,world,-2.0742953966449234,-1.9158008347178161,0.13663709829216697,0.013110781676470671,-0.010129433577691343,-0.004715453420068963,0.999851622231154
1719786226.4273522,2198,1719786226,464116000,world,-2.0743008410582258,-1.9158088901118917,0.1366473075068702,0.013145093114572069,-0.01014232341093492,-0.004674477164123102,0.9998512334672992
1719786226.4461985,2199,1719786226,476436000,world,-2.0742837381303816,-1.915782948735906,0.13664810106498532,0.013136608408471622,-0.010113760656084745,-0.004684322069665647,0.9998515882328045
1719786226.4564462,2200,1719786226,484454000,world,-2.074283056662536,-1.915761563515369,0.13663364344985196,0.013136221614774346,-0.010102051454803805,-0.004704007597263566,0.9998516192668875
1719786226.4662542,2201,1719786226,494024000,world,-2.074285628418088,-1.915769791310378,0.13663810192098413,0.013161143653952129,-0.010061657497044138,-0.0046912109127884745,0.9998517589554485
1719786226.4764383,2202,1719786226,505870000,world,-2.074293629573902,-1.9158001249599517,0.13665322661154097,0.013119808333253291,-0.010110307553797061,-0.004691940851690453,0.999851808020324
1719786226.4864612,2203,1719786226,514213000,world,-2.0742942530745325,-1.915811548520482,0.1366650311013325,0.01312358902601604,-0.010102798994438607,-0.004691836069532558,0.9998518347924612
1719786226.4962082,2204,1719786226,525778000,world,-2.0742853509690793,-1.9157966282322967,0.13665838081028917,0.013130575159230407,-0.010109687110349468,-0.00469659817437001,0.9998516510903541
1719786226.506624,2205,1719786226,534113000,world,-2.074285678566177,-1.915781930503735,0.13663722257333738,0.013136960891918037,-0.01010836513455986,-0.00470370873871954,0.9998515471493415
1719786226.5066698,2206,1719786226,544154000,world,-2.074295711388667,-1.915792816759276,0.13663921573491095,0.013122112475342467,-0.010102396460367905,-0.004679705100438006,0.9998519150904874
1719786226.5262883,2207,1719786226,555961000,world,-2.074290034227603,-1.915792272340741,0.1366622876438078,0.01316779966497661,-0.010086874167618195,-0.00469719830741629,0.9998513891321904
1719786226.5269713,2208,1719786226,564171000,world,-2.0742823444149088,-1.9157848060254077,0.1366729500925863,0.013123370929271032,-0.010094861624046244,-0.004688967212919974,0.9998519312831878
1719786226.5462124,2209,1719786226,574988000,world,-2.0742838563947523,-1.915793698303895,0.13667277795171434,0.01313119801920349,-0.010151993668067362,-0.004694533527475403,0.999851223941894
1719786226.5562446,2210,1719786226,584929000,world,-2.0742918847239884,-1.9157941984757096,0.1366661049048976,0.013116284785767072,-0.010102917543162051,-0.0046902365208979805,0.9998519369446224
1719786226.5662045,2211,1719786226,594102000,world,-2.074292071656011,-1.9157956910728684,0.136654744572461,0.013150776205700673,-0.010114613556843252,-0.004709727213541847,0.9998512740139692
1719786226.576191,2212,1719786226,605387000,world,-2.0742868020897145,-1.9158078762300514,0.1366638990777007,0.013162163655236382,-0.010116534653540274,-0.004689382069161563,0.9998512003644974
1719786226.5862212,2213,1719786226,614191000,world,-2.0742961060674485,-1.9158156631546683,0.1366829938461629,0.013114896855452179,-0.01015606696727605,-0.0047045683261364695,0.9998513493620398
1719786226.596463,2214,1719786226,628249000,world,-2.0742967407707646,-1.9158045127479304,0.13667771448267374,0.013139470788522163,-0.0101268059795587,-0.004698372088743826,0.9998513526558666
1719786226.6064599,2215,1719786226,637753000,world,-2.0742953822680237,-1.9157660576388909,0.13668296983190573,0.013140033416146845,-0.010121089989336697,-0.0046984562836889605,0.999851402743328
1719786226.6161962,2216,1719786226,645509000,world,-2.0742825714199533,-1.9157648689719007,0.13669643968470685,0.013092973901452903,-0.010109671857152796,-0.004691760451286849,0.9998521670493216
1719786226.626209,2217,1719786226,654222000,world,-2.074287948116316,-1.9157783350252393,0.1367000226346696,0.013131214366068263,-0.010104290436241274,-0.004696410743342122,0.9998516981283686
1719786226.636275,2218,1719786226,668742000,world,-2.074295643092492,-1.9157790709041658,0.13669406692556887,0.01316602693436419,-0.010109724031997919,-0.004696593298532767,0.999851184540054
1719786226.6462765,2219,1719786226,676752000,world,-2.0742944307545077,-1.9157842799519864,0.13669808897980598,0.013171484026028774,-0.010109214477985403,-0.004676872493148113,0.9998512102582429
1719786226.6562054,2220,1719786226,685220000,world,-2.0742899761143296,-1.9157657185779933,0.13668524198232732,0.013155939107104221,-0.010084632452124246,-0.004705683762226325,0.9998515279754518
1719786226.666209,2221,1719786226,694541000,world,-2.0742753418999698,-1.9157377948327554,0.13665502581038386,0.013193146584079754,-0.010101127051251121,-0.004675513817091142,0.9998510127444247
1719786226.6762612,2222,1719786226,704480000,world,-2.0742814987773035,-1.9157510844914318,0.13664252080958378,0.01313996348897019,-0.010062232583950061,-0.004686595000381966,0.9998520533870188
1719786226.6866288,2223,1719786226,715337000,world,-2.0742839904954025,-1.9157717203989995,0.13666279296524397,0.013140010638208435,-0.01014448520991696,-0.004687602534651459,0.9998512168931589
1719786226.6867452,2224,1719786226,724022000,world,-2.074285176744648,-1.9157920233151704,0.13668553790106835,0.013137988527476701,-0.010173720495957808,-0.004708828863869391,0.9998508466763695
1719786226.7062001,2225,1719786226,735019000,world,-2.0742933938674613,-1.91578858600054,0.1366643764362889,0.01315184682670674,-0.01016236347548138,-0.004706251732819699,0.9998507921126364
1719786226.7162166,2226,1719786226,744477000,world,-2.0742946831319413,-1.9157978213996503,0.13667100225052614,0.013099855045935645,-0.01011695173117251,-0.004685559076661773,0.9998520323635813
1719786226.7265272,2227,1719786226,754861000,world,-2.0742939242583427,-1.9158041784585234,0.13665752473069054,0.013108787125131574,-0.01010199035809745,-0.004678680750087475,0.9998520987812906
1719786226.7362907,2228,1719786226,765031000,world,-2.0742838969206097,-1.9157862001059922,0.13663684549487132,0.013131030798506992,-0.010096017108998894,-0.004694615011930772,0.9998517925465722
1719786226.746198,2229,1719786226,774754000,world,-2.074281186633658,-1.915794268203193,0.136645182636983,0.013074753718250487,-0.010145542772906618,-0.0046913416447956656,0.9998520440998369
1719786226.756442,2230,1719786226,784836000,world,-2.074291463655322,-1.9158047841185863,0.13666132446512966,0.01311539278608877,-0.010174284288944494,-0.0047034199300403584,0.9998511630498992
1719786226.7661939,2231,1719786226,794729000,world,-2.0742731653486493,-1.9157894686722992,0.13664625563139798,0.013124164654288577,-0.010154984834750106,-0.004701255343383895,0.9998512543290276
1719786226.7763314,2232,1719786226,805266000,world,-2.0742668479047905,-1.9157849816236765,0.1366464362724431,0.013143431977169202,-0.010157843277570258,-0.00470812530714072,0.9998509398764909
1719786226.7764988,2233,1719786226,814022000,world,-2.0742691381508798,-1.9157816218024477,0.1366656935871163,0.013175786393712967,-0.010151645446753994,-0.004706844216035435,0.9998505830198615
1719786226.796434,2234,1719786226,824972000,world,-2.0742713936470696,-1.915759851939765,0.13666943305924634,0.01316980848189573,-0.010123808017033583,-0.004711158178280072,0.9998509237103318
1719786226.806511,2235,1719786226,834684000,world,-2.074274485043206,-1.915768423807566,0.1366557142403426,0.013156729278716164,-0.010131011938180823,-0.004714858410902123,0.9998510054912985
1719786226.8162065,2236,1719786226,844798000,world,-2.0742724094191,-1.9157826094949686,0.13664902153114475,0.013132852388667833,-0.01013386775636249,-0.0047054496098993745,0.9998513347775272
1719786226.8267038,2237,1719786226,855341000,world,-2.0742643835079706,-1.915787304202447,0.13664682315992596,0.013127301955571706,-0.010128870497269444,-0.0047166481372013696,0.9998514055379263
1719786226.8362007,2238,1719786226,868907000,world,-2.0742670873797096,-1.9157532055614672,0.13664021628552875,0.013132936557614529,-0.010140106587502414,-0.004713190890332047,0.9998512339580321
1719786226.8461947,2239,1719786226,878407000,world,-2.074270682981715,-1.9157653001979031,0.13667430871299513,0.013132080096187208,-0.010132900519568914,-0.004699660126558943,0.9998513819533896
1719786226.8562922,2240,1719786226,885808000,world,-2.074283764805851,-1.9157987149211393,0.1367002995006025,0.013154704610699685,-0.010130235280045407,-0.0046970429028165474,0.9998511238518188
1719786226.8661976,2241,1719786226,894906000,world,-2.074279757254791,-1.9158041439974831,0.1366817797905568,0.013122556634342806,-0.010157911754140485,-0.004689379909724796,0.9998513014704916
1719786226.876717,2242,1719786226,905093000,world,-2.074278304128675,-1.915768255512072,0.13664695408722108,0.013141193987346074,-0.010154223895396735,-0.004700640291119489,0.9998510412749104
1719786226.8861954,2243,1719786226,914090000,world,-2.0742755131520885,-1.9157509164689202,0.1366381207207607,0.013161948926415578,-0.010115030713236616,-0.004701803409192521,0.9998511600727531
1719786226.896201,2244,1719786226,926035000,world,-2.07428787714674,-1.9157662945798428,0.13666178077584887,0.013167219812198903,-0.010128962002485193,-0.004685269153185212,0.9998510272556266
1719786226.9062397,2245,1719786226,934804000,world,-2.07429000801777,-1.9157858622011772,0.1366863968083363,0.013102032985567206,-0.010155198340450483,-0.004688468355258161,0.9998516024604817
1719786226.9071276,2246,1719786226,944086000,world,-2.0742959663828913,-1.9157993904140738,0.13670251957057195,0.013098979196134267,-0.010116985387597095,-0.004686496911860039,0.9998520391024772
1719786226.9262693,2247,1719786226,955965000,world,-2.0742914575961495,-1.9157970201716084,0.1366899378641144,0.013151024520158613,-0.010136099621074618,-0.0046898803353103155,0.9998511464518017
1719786226.9361947,2248,1719786226,964378000,world,-2.0742731287483185,-1.9157528576897407,0.13666872235821045,0.013125698440917268,-0.010176967562033425,-0.004695913691938344,0.9998510357879704
1719786226.946211,2249,1719786226,974799000,world,-2.0742669666430773,-1.9157375711348545,0.13667923194901166,0.013139662182919825,-0.010118150946607445,-0.004711175738338651,0.9998513775168304
1719786226.9564395,2250,1719786226,984914000,world,-2.074280536310063,-1.9157612223152878,0.1366824720343745,0.013132393229579261,-0.010128400035775541,-0.004696509419972588,0.999851438244726
1719786226.9666908,2251,1719786226,994146000,world,-2.0742848090620214,-1.915790839912317,0.13668285050270643,0.013136380729462065,-0.0101279216393448,-0.004705263009903804,0.9998513495538254
1719786226.9762146,2252,1719786227,5466000,world,-2.0742755050123756,-1.915793214399409,0.1366671843520346,0.013134235359580014,-0.0101376505835646,-0.004668124834580742,0.9998514532232743
1719786226.9863317,2253,1719786227,14437000,world,-2.0742782430210807,-1.9157856306593957,0.1366674649961451,0.013150492639423327,-0.010105729295245556,-0.004687801949591612,0.9998514706153275
1719786226.9962873,2254,1719786227,24599000,world,-2.07427908701324,-1.915762207810824,0.1366807865742066,0.013155982136430424,-0.010110644279056573,-0.004700926468862642,0.9998512870905466
1719786227.006213,2255,1719786227,35241000,world,-2.074276535937084,-1.9157613450368285,0.13668535853549033,0.013178817401233634,-0.010087813883557699,-0.004704326344950503,0.9998512009777234
1719786227.0165694,2256,1719786227,44166000,world,-2.0742829565807073,-1.9157810268615798,0.1366885559753494,0.013151732573798923,-0.010113221666746375,-0.004690595376316962,0.9998513654503064
1719786227.0262136,2257,1719786227,54501000,world,-2.0742780253217186,-1.9157804253258424,0.1366844075085301,0.013163561636186667,-0.010141681979363801,-0.004678074021248379,0.9998509801741114
1719786227.0365295,2258,1719786227,64288000,world,-2.0742742744128555,-1.9157634200040274,0.13665584599450167,0.013148064927985497,-0.010134243699783281,-0.00468505287593196,0.9998512268196869
1719786227.0462017,2259,1719786227,74697000,world,-2.0742734209558904,-1.9157547914292372,0.13666737532345358,0.013160544191918158,-0.01010709510486135,-0.004700061512860721,0.9998512670026923
1719786227.056208,2260,1719786227,84553000,world,-2.074275485245787,-1.915762133119694,0.1366821839058927,0.013152928749867862,-0.01014390980313785,-0.004690273458690152,0.9998510403525565
1719786227.0662088,2261,1719786227,94472000,world,-2.0742823164480844,-1.9157719458767462,0.13667656362921532,0.013154430539161986,-0.010149804180735593,-0.004681573272221083,0.9998510015517214
1719786227.0762048,2262,1719786227,104786000,world,-2.0742797939380964,-1.9157778249978157,0.1366757320724835,0.013158873522111769,-0.010134207035766226,-0.004670500788038557,0.9998511530811847
1719786227.0862079,2263,1719786227,114572000,world,-2.07427554558875,-1.9157623565054447,0.13667353251182202,0.013147483536535318,-0.01013421061783204,-0.0046891063153731306,0.9998512157985172
1719786227.0962274,2264,1719786227,124303000,world,-2.0742871062457424,-1.9157613068177493,0.1366848776172359,0.013155037123909285,-0.010122883050113489,-0.004695611620883113,0.9998512006636429
1719786227.1062124,2265,1719786227,134381000,world,-2.0742796051495533,-1.915746314097904,0.13669034214144507,0.013153834344184597,-0.010106832101435438,-0.0046988912602822595,0.9998513634575107
1719786227.116528,2266,1719786227,144497000,world,-2.0742775526086112,-1.9157320375914377,0.13668025143609733,0.013155741922389,-0.01009474558160267,-0.004706245687758451,0.9998514258716845
1719786227.126203,2267,1719786227,155101000,world,-2.0742856873816193,-1.9157669149092513,0.136679931548166,0.01313932591926898,-0.010113609453127836,-0.004687960922372116,0.9998515369996723
1719786227.136199,2268,1719786227,164251000,world,-2.0742879696917527,-1.9157801871252802,0.13668143132025795,0.013117994666643708,-0.01014357662175941,-0.004666894979582793,0.9998516120707582
1719786227.1465487,2269,1719786227,174394000,world,-2.0742947876791917,-1.9157853092623214,0.1366910827257655,0.013144856671560273,-0.010122835615632868,-0.004693660711824941,0.9998513441963787
1719786227.1562097,2270,1719786227,184372000,world,-2.0742968694237702,-1.9157797744576581,0.13669506571071402,0.013142833877786395,-0.010102818781758754,-0.00468676151456394,0.9998516056079669
1719786227.1663425,2271,1719786227,195000000,world,-2.074287885606991,-1.9157567465858785,0.13668034528334666,0.013122991772475438,-0.010119793204773459,-0.004702994211039755,0.9998516183503846
1719786227.1762266,2272,1719786227,204769000,world,-2.074279382257567,-1.9157423805236955,0.1366395739725988,0.013153065506494104,-0.010102506232754164,-0.004702077843173391,0.999851402309141
1719786227.1864789,2273,1719786227,214241000,world,-2.074288398556439,-1.9157818125570214,0.13665675753401413,0.013158298500258103,-0.010148783044495943,-0.004672226581424223,0.9998510047412393
1719786227.196213,2274,1719786227,224782000,world,-2.0742884446338383,-1.9157971717386508,0.1366833441409265,0.013137648942470425,-0.010131081963900482,-0.004674918744483819,0.9998514432120592
1719786227.2062178,2275,1719786227,238459000,world,-2.0742790349266564,-1.915761604469089,0.13667727971944726,0.013141916006919415,-0.010103455486687144,-0.004686284803911985,0.9998516134735357
1719786227.2163398,2276,1719786227,248264000,world,-2.07428949281569,-1.9157512745085408,0.13667125066107447,0.013120228782141,-0.010100373524876645,-0.004690371993772875,0.9998519102656767
1719786227.2263193,2277,1719786227,255702000,world,-2.074297492383499,-1.915757599141782,0.13667788199094566,0.013137283258890036,-0.010108594205933148,-0.004682041257498351,0.9998516422957052
1719786227.226513,2278,1719786227,264022000,world,-2.074284312188996,-1.9157585554121384,0.13666549641695105,0.013136260455637351,-0.010081329340564774,-0.0046714206657056554,0.9998519806896085
1719786227.2462456,2279,1719786227,275874000,world,-2.0742882327789527,-1.9157817216558077,0.13667400423803935,0.013115948841416824,-0.010138985052708268,-0.0046904899498099025,0.9998515750710809
1719786227.2563906,2280,1719786227,284069000,world,-2.0742864787293165,-1.9157774871679332,0.13669985689968875,0.013135413615725606,-0.010121579928708312,-0.004703041441311285,0.999851436929553
1719786227.2662866,2281,1719786227,294063000,world,-2.0742799092470405,-1.9157659003606609,0.1367088915745222,0.01310911129836264,-0.010111277247677493,-0.004698063649778902,0.9998519097703071
1719786227.2761896,2282,1719786227,305348000,world,-2.0742772359504547,-1.9157414198428933,0.1367113053199071,0.013112656631029678,-0.010063719123665021,-0.004679488918183508,0.9998524302000478
1719786227.2769933,2283,1719786227,313978000,world,-2.0742734498011433,-1.915729257291704,0.13670256055877414,0.013112578506645975,-0.010087478993444475,-0.004709738837149213,0.9998520497616383
1719786227.2962055,2284,1719786227,326399000,world,-2.0742880195728963,-1.9157779201544862,0.1366873379268519,0.013117215299658307,-0.010134807818695017,-0.004679429078743085,0.9998516526349084
1719786227.306349,2285,1719786227,334538000,world,-2.0742973532779367,-1.915780718790033,0.13668281392199738,0.013152321875341351,-0.010129515070411871,-0.004687949979369115,0.9998512051694075
1719786227.3161983,2286,1719786227,344059000,world,-2.0742879156262175,-1.9157686107440133,0.1367001250215558,0.013135399163877218,-0.010128140221247509,-0.004689073668005838,0.9998514362907124
1719786227.3268757,2287,1719786227,355927000,world,-2.0742876566721034,-1.9157551024721102,0.13672081393067478,0.013128203296968358,-0.010087478948885306,-0.004703296175025099,0.9998518750553702
1719786227.3365057,2288,1719786227,368288000,world,-2.07428470335708,-1.9157374959238,0.13671002695513446,0.013106294084615772,-0.01008642566942407,-0.004663498744933356,0.9998523595271648
1719786227.3462083,2289,1719786227,378294000,world,-2.0742812744386314,-1.9157378354971188,0.13666286598916483,0.01310722336735749,-0.010100578580990009,-0.004691079321550639,0.999852075450527
1719786227.3563378,2290,1719786227,385829000,world,-2.0742876561699846,-1.915763363888348,0.1366598097858181,0.013108377766163241,-0.010110522490551839,-0.004660161597859392,0.9998521043940398
1719786227.3664043,2291,1719786227,394711000,world,-2.074281265582554,-1.9157886249769043,0.1366863268558605,0.013099470134117082,-0.010135138249679118,-0.004661572051218422,0.9998519653433086
1719786227.376386,2292,1719786227,405717000,world,-2.0742843445991928,-1.915763403738862,0.13668159557113485,0.013133914642130554,-0.010091743406135207,-0.0047043306496919925,0.9998517521484555
1719786227.3862114,2293,1719786227,414084000,world,-2.074284332013745,-1.915749008592507,0.13669615014243153,0.013129115135274198,-0.010095308248754858,-0.004705554941668887,0.9998517734343517
1719786227.3962023,2294,1719786227,424485000,world,-2.0742930696030517,-1.9157561546669308,0.13670887386270267,0.013126752863158652,-0.010083100681210511,-0.004691098484678688,0.9998519955648082
1719786227.406202,2295,1719786227,434790000,world,-2.0742931158889006,-1.9157752277920432,0.1366803698988174,0.013139612761152258,-0.010104785083684956,-0.00467857385748095,0.9998516664193544
1719786227.4162152,2296,1719786227,444346000,world,-2.0742920463160104,-1.9157989200315206,0.13667894151059118,0.01311530411221153,-0.010141505059484246,-0.004678005570828315,0.9998516164596885
1719786227.4262142,2297,1719786227,454666000,world,-2.0742957444000134,-1.915782238957056,0.13671330477286622,0.013115765076552544,-0.010130819370367939,-0.004681761922029709,0.9998517011590504
1719786227.4362016,2298,1719786227,464748000,world,-2.0742878972742442,-1.9157334713953664,0.13670902393806733,0.01314145539312713,-0.01007798583306379,-0.004677087800638782,0.9998519196368051
1719786227.4462748,2299,1719786227,474958000,world,-2.074273516756763,-1.9157146152843632,0.13669660201591605,0.013114239592350483,-0.010060594382810926,-0.004717398582164476,0.9998522627424494
1719786227.4562826,2300,1719786227,484606000,world,-2.074292603604392,-1.9157800613574871,0.13670405893111817,0.013124641687756435,-0.010104452587432988,-0.004695070734616773,0.9998517890813985
1719786227.4662175,2301,1719786227,494283000,world,-2.074289381368296,-1.9158246290619632,0.13669583421592554,0.013124771280154018,-0.01014178963565593,-0.0046915762271181344,0.9998514257600151
1719786227.476213,2302,1719786227,504926000,world,-2.074280503573178,-1.9158038751327384,0.13668876767954277,0.013126411455189826,-0.01015089812633993,-0.004687488980025737,0.9998513309670592
1719786227.486416,2303,1719786227,514719000,world,-2.074289047357373,-1.9157637978158166,0.13670819510488896,0.013160057022427087,-0.010112729322092012,-0.004700468022781597,0.9998512145340382
1719786227.4962287,2304,1719786227,524437000,world,-2.074290566251082,-1.9157270363358707,0.13671661426327858,0.013129783778636737,-0.01005215619064869,-0.0047247866487314365,0.9998521087265702
1719786227.5062144,2305,1719786227,534308000,world,-2.074278716153061,-1.9157422638691888,0.13667875941715524,0.013139010737667961,-0.0101002830716907,-0.0047264551332395505,0.9998514946233669
1719786227.5162227,2306,1719786227,544331000,world,-2.074283892973306,-1.915798879802141,0.1366746493911536,0.01314582439198647,-0.010125146905558515,-0.004689867639914945,0.9998513258693597
1719786227.5263357,2307,1719786227,554885000,world,-2.0742847948771765,-1.9158241595983616,0.13670292334683934,0.013142439857416912,-0.01016143467532532,-0.004673103569443224,0.9998510807230059
1719786227.5365756,2308,1719786227,564881000,world,-2.0742837190342156,-1.9158028617855414,0.13671721526726272,0.013133314544154378,-0.010156355411260571,-0.004689279144324843,0.9998511765032589
1719786227.546296,2309,1719786227,574092000,world,-2.0742724890566695,-1.9157407181558181,0.1367056366559693,0.013132799788827901,-0.01014531453495344,-0.004715115719175085,0.9998511738486124
1719786227.5562637,2310,1719786227,584415000,world,-2.074263251882187,-1.9157163734732763,0.1366812964749696,0.013121694707400615,-0.010100685469055641,-0.004735164158642413,0.9998516767508328
1719786227.566217,2311,1719786227,594912000,world,-2.0742728292333483,-1.915768461534369,0.13667458042566252,0.013133674989160772,-0.010132455684715751,-0.004717609024614618,0.999851280985411
1719786227.5765855,2312,1719786227,604880000,world,-2.0742841170931325,-1.915815340157938,0.136687073129619,0.013155042846012086,-0.010177583584398634,-0.004685253578590046,0.9998506938733437
1719786227.586185,2313,1719786227,614395000,world,-2.0742833483485694,-1.915787962767407,0.13669541594905366,0.013112627332673616,-0.010176771535525648,-0.004696127505151233,0.9998512082865147
1719786227.5962384,2314,1719786227,624248000,world,-2.0742752685875705,-1.9157448560571033,0.13673481294745157,0.013167991936815128,-0.01010771230876709,-0.004704987892781608,0.9998511395348629
1719786227.6062992,2315,1719786227,638592000,world,-2.0742804507806047,-1.9157157235363325,0.1367322084339202,0.01314187782897514,-0.010047237361260916,-0.004733538194220391,0.9998519578841153
1719786227.6164396,2316,1719786227,647969000,world,-2.0742853311789364,-1.9157538056280086,0.13668613911598024,0.013159641960159776,-0.010066049785696123,-0.004719157733734619,0.9998516029969031
1719786227.6262765,2317,1719786227,656037000,world,-2.0742889644400244,-1.9157994584521394,0.13667650621116997,0.013107050771100363,-0.010145048160283377,-0.004696760652363928,0.9998516008174833
