Time,header.seq,header.stamp.secs,header.stamp.nsecs,header.frame_id,pose.position.x,pose.position.y,pose.position.z,pose.orientation.x,pose.orientation.y,pose.orientation.z,pose.orientation.w
1719786258.0668275,5361,1719786258,94661000,world,-2.0200819398497782,-1.9703277937311123,1.2148460451015006,0.016602059156578832,-0.0038728207384679456,0.7047196136558688,0.7092810719453977
1719786258.0761669,5362,1719786258,104795000,world,-2.020102196115162,-1.9703220118832874,1.214727464406234,0.016586045716769533,-0.003912918757447093,0.7047964471411268,0.7092048788971519
1719786258.0769122,5363,1719786258,113964000,world,-2.020107211006714,-1.9703509827796417,1.2146385645080489,0.016599859586386795,-0.003838652334866178,0.7048651178378718,0.709136711125131
1719786258.097051,5364,1719786258,125872000,world,-2.0201054757811137,-1.9703832849774794,1.214548626679275,0.016714152645382736,-0.003689995200444521,0.7049120551058433,0.7090881578500831
1719786258.106464,5365,1719786258,134080000,world,-2.020099529954977,-1.9704173850558075,1.2144674119509897,0.016991302604354865,-0.003613226559129428,0.7049647711539357,0.709029556267945
1719786258.116988,5366,1719786258,145070000,world,-2.0200915116726716,-1.9704324373126063,1.2144073129572601,0.017129500662811173,-0.0036662140114954935,0.7049959336515724,0.708994973618722
1719786258.1267376,5367,1719786258,154629000,world,-2.0200961798252823,-1.9704296569627953,1.2143333985617903,0.017230746818357942,-0.003677575838916191,0.7049957664071086,0.7089926277106725
1719786258.1363568,5368,1719786258,164323000,world,-2.0201228387346037,-1.9704595336904702,1.2143116165598253,0.01728631470978717,-0.003679396402337185,0.7050462931280245,0.7089410200519509
1719786258.1462264,5369,1719786258,175661000,world,-2.0201595294145545,-1.9705006273093375,1.2142889801805594,0.01734820304381458,-0.003740972143655709,0.7051119034352136,0.7088739299851147
1719786258.156552,5370,1719786258,184320000,world,-2.020166185881111,-1.9705253861015741,1.2142534197480934,0.017436475034415925,-0.0036568976606851087,0.70513103462143,0.7088531727033357
1719786258.166788,5371,1719786258,194649000,world,-2.020198632111453,-1.9705418493584486,1.2142091237964323,0.017565775962888944,-0.003683381381967609,0.7051341632670131,0.708846730972321
1719786258.1768348,5372,1719786258,205029000,world,-2.0202173842871574,-1.9705290829100717,1.2142156823066124,0.017691097977167846,-0.0037706550304505352,0.7050949920240526,0.7088821195626286
1719786258.1862633,5373,1719786258,214528000,world,-2.020220581238395,-1.970518016476679,1.2142137133256643,0.017617364825278793,-0.003845668776345697,0.7051247477970626,0.7088539548682823
1719786258.1963472,5374,1719786258,224233000,world,-2.020244169780088,-1.9705254762645186,1.2142235077412367,0.017621584752653557,-0.003951775331453938,0.7051415976967844,0.7088365047175271
1719786258.206509,5375,1719786258,235665000,world,-2.020274941008856,-1.9705530385849555,1.214233468797165,0.017513741891849257,-0.003974727646610154,0.7051369136719022,0.7088437086991359
1719786258.2164783,5376,1719786258,244719000,world,-2.020299649767717,-1.9705906462630598,1.2142489710068112,0.01738824604888834,-0.003863174491485514,0.7050820148423261,0.7089020222344394
1719786258.2267241,5377,1719786258,254318000,world,-2.0203372172833634,-1.9705735324346083,1.2142321972343906,0.017351789963659908,-0.0038037806325623247,0.7051033835743559,0.7088819824977578
1719786258.2362192,5378,1719786258,264852000,world,-2.0203667936882557,-1.9705524512975128,1.2142364131896448,0.017372073122907422,-0.003906606771613786,0.7051384141195798,0.7088460809173374
1719786258.246632,5379,1719786258,275124000,world,-2.02040136736417,-1.9705506554872965,1.2142576837187993,0.017298312951697724,-0.003945792354203995,0.7051553694311895,0.7088308007233358
1719786258.2563384,5380,1719786258,284870000,world,-2.0204381371457667,-1.9705457541695581,1.2142557953042306,0.01725333667380677,-0.004138850631298646,0.7051917304982239,0.7087946215413831
1719786258.2663817,5381,1719786258,294368000,world,-2.020462658574118,-1.9705832453426704,1.2142505299698145,0.017130561735360116,-0.004125910532674998,0.705173564196681,0.7088157483260772
1719786258.27657,5382,1719786258,304361000,world,-2.020488747704688,-1.9705953005245727,1.214268038371228,0.017039129450180983,-0.004017590303486807,0.7051834556147337,0.7088087336954845
1719786258.2862582,5383,1719786258,314434000,world,-2.0205149643302454,-1.970575476080094,1.2142774780547312,0.01694511848500895,-0.003825235897196505,0.7052178084790335,0.7087778729149841
1719786258.2963502,5384,1719786258,325357000,world,-2.0205558740202774,-1.970549010011302,1.2142667014720079,0.017069753726666182,-0.0036369620958559964,0.7051792962718626,0.7088141901259774
1719786258.3063946,5385,1719786258,334476000,world,-2.020580443768596,-1.9705474647759398,1.2142856510125248,0.017144030068800036,-0.003442169758067539,0.7052056387623585,0.708787161818081
1719786258.3162804,5386,1719786258,344142000,world,-2.0205958847122436,-1.9705627637363325,1.2143035934484456,0.01734114173205544,-0.003204419684396629,0.7052163100614086,0.7087728638437609
1719786258.3264809,5387,1719786258,354214000,world,-2.0206007960777956,-1.9705742119889895,1.2142975089096366,0.017541246436609058,-0.0030399197373854807,0.7051715416417985,0.7088132055908452
1719786258.3363323,5388,1719786258,364853000,world,-2.020605415489298,-1.9705726154277385,1.2143209315550474,0.017649420887386514,-0.002745871889918157,0.7051073838802967,0.7088755429039627
1719786258.3461683,5389,1719786258,375261000,world,-2.0206311539978397,-1.9705616695934487,1.214334861742323,0.017664421693415783,-0.0026462243588900904,0.705084182589702,0.7088986254498534
1719786258.3565884,5390,1719786258,384502000,world,-2.020659528555902,-1.9705624738886034,1.214332733265089,0.01759232468155223,-0.0025406945768265575,0.7050494532857503,0.7089353450102701
1719786258.366374,5391,1719786258,393885000,world,-2.020692813228504,-1.9705731747626019,1.2143052617844077,0.017572100560668172,-0.002757850741936141,0.70510014364244,0.7088846189448473
1719786258.377214,5392,1719786258,408531000,world,-2.0207338188128006,-1.9705742882875381,1.2142792459101914,0.017531131453734212,-0.0026816788880726,0.705162632794768,0.7088237646539827
1719786258.3863525,5393,1719786258,417889000,world,-2.0207564278989465,-1.970597653144887,1.214270974603697,0.01775953623600973,-0.0027550110530331754,0.705185990875098,0.7087945591356396
1719786258.396426,5394,1719786258,425742000,world,-2.0207604502644005,-1.970601438789311,1.214270051617577,0.01798777086460943,-0.002654209851391379,0.7051823389804065,0.7087928216760594
1719786258.406442,5395,1719786258,434774000,world,-2.020751238555999,-1.9706062243994822,1.214287144940497,0.018233015654471472,-0.002692543964394208,0.7052100978702806,0.7087587919799888
1719786258.4169056,5396,1719786258,444965000,world,-2.0207599499332236,-1.970637135793384,1.2142793063598933,0.01840420784121669,-0.0027762232085989254,0.7051978688540053,0.708766212147703
1719786258.426756,5397,1719786258,457333000,world,-2.020788866889942,-1.9706655740777919,1.2142666755924325,0.0184189129492029,-0.002940422373913496,0.7052346265361915,0.7087285933955192
1719786258.4363143,5398,1719786258,465681000,world,-2.020816755627822,-1.9706827936542082,1.214238312185486,0.018329640179935883,-0.0029258204852807192,0.705228145291868,0.7087374174922288
1719786258.4466095,5399,1719786258,476193000,world,-2.020856068907702,-1.9707052988533855,1.2142547054208042,0.01835071644910238,-0.0030713326230322304,0.7052283708512345,0.7087360320092645
1719786258.456226,5400,1719786258,484417000,world,-2.0208776505302155,-1.9707275188562123,1.2142564183404476,0.01846135662091451,-0.0032567072099298276,0.7052238215861427,0.7087368578233396
1719786258.466182,5401,1719786258,495144000,world,-2.0208587561020646,-1.9707506009856055,1.2142584940797807,0.018531378666462636,-0.0032694594502893602,0.7052171543843089,0.7087416058068844
1719786258.476531,5402,1719786258,504774000,world,-2.0208521292125603,-1.9707760592350099,1.214224216569767,0.018610526030801537,-0.00337125658344472,0.7052419400712843,0.708714391637701
1719786258.4863188,5403,1719786258,513942000,world,-2.020850602664199,-1.9708075199200927,1.214164526760556,0.018562265261242338,-0.0032874436363175327,0.7052079285790297,0.708749894174231
1719786258.497014,5404,1719786258,526494000,world,-2.020851688344643,-1.970842450265899,1.2141511628548725,0.01840564372438042,-0.003145667225153017,0.705098912397227,0.7088630761952884
1719786258.5063794,5405,1719786258,534463000,world,-2.020879757775674,-1.9708440487805847,1.2141388453263047,0.018325974369517415,-0.003039880490933043,0.705020150595826,0.7089439364603153
1719786258.5163944,5406,1719786258,544306000,world,-2.0209005400177085,-1.9708497910607319,1.214114011467406,0.018186117638385145,-0.003095626246103363,0.7050214990315798,0.7089459557164081
1719786258.5262892,5407,1719786258,554754000,world,-2.020894288099102,-1.9708516230468762,1.2140573751376154,0.01800237392101638,-0.003053188514848052,0.7049940590102164,0.7089781162584643
1719786258.5369306,5408,1719786258,564385000,world,-2.0208786322052417,-1.9708702092517179,1.213955888248158,0.01780909983464383,-0.00306140036577437,0.7050275252379563,0.7089496825923001
1719786258.5462744,5409,1719786258,575730000,world,-2.020896593349485,-1.9709125156227358,1.2138478329998033,0.01759626850495883,-0.003104988328727709,0.7049522818128531,0.7090296261433874
1719786258.556324,5410,1719786258,584438000,world,-2.0208973056277317,-1.9709345957500526,1.2137570973011078,0.017239550810740776,-0.003025551186908114,0.704935969670815,0.7090549503332779
1719786258.5661952,5411,1719786258,594329000,world,-2.0209230821728656,-1.970908164836078,1.213639535368878,0.01696205366472872,-0.0029923460835109238,0.7049517327604893,0.7090461120959447
1719786258.5766404,5412,1719786258,604561000,world,-2.0209175941794797,-1.9708996739815727,1.213525136633624,0.01678523877703835,-0.002915984411158285,0.7049250720060086,0.7090771436532385
1719786258.5865088,5413,1719786258,614192000,world,-2.020910538878314,-1.9709062920878635,1.2134099718190676,0.016721651607801757,-0.0027943965045247,0.7049068850646523,0.7090972155523754
1719786258.5962143,5414,1719786258,624678000,world,-2.0208940995022293,-1.9709325500856818,1.213292874850139,0.016761054061989314,-0.0026998258286202283,0.7048835214620042,0.7091198764514719
1719786258.6066008,5415,1719786258,635804000,world,-2.020882363132133,-1.9709357647541446,1.2132024380601714,0.016722461126407337,-0.0027761266498936925,0.7048301461210018,0.7091735454271731
1719786258.616383,5416,1719786258,644484000,world,-2.020884908817205,-1.9709229455271464,1.2130897808054064,0.016544835486404588,-0.0028446835518029776,0.7047963038242155,0.7092110731721143
1719786258.6263773,5417,1719786258,654148000,world,-2.020881666640814,-1.9709196073075061,1.2129355271499904,0.0164273880186558,-0.003097971959763155,0.7048597301346332,0.7091497051590399
1719786258.6364176,5418,1719786258,664691000,world,-2.0208759574806785,-1.9709496304009249,1.2128022370043186,0.016432499252371273,-0.0032026621929239804,0.704889608382722,0.7091194228881703
1719786258.6466606,5419,1719786258,675135000,world,-2.020860915146475,-1.9709981249170336,1.2126969286108114,0.016577840866559435,-0.0031246415950616866,0.7049827108021293,0.7090238284269343
1719786258.656835,5420,1719786258,684899000,world,-2.020839148278498,-1.971017045023491,1.2125795044632692,0.01682044537490386,-0.003099189594932195,0.7050507782730749,0.7089505396695709
1719786258.666186,5421,1719786258,694277000,world,-2.020822382433548,-1.971022235031173,1.2124995501710678,0.017120559686341113,-0.003232667110856394,0.7051286708413499,0.7088652861135805
1719786258.67719,5422,1719786258,704388000,world,-2.02080601363087,-1.9710178553322404,1.212436810915259,0.01737925661230243,-0.003234064913292835,0.7051389329058232,0.7088487762309938
1719786258.6867285,5423,1719786258,714366000,world,-2.020753467998661,-1.971024848765714,1.2123731093049752,0.017629117627912524,-0.003283216543606799,0.705174694121563,0.7088068040526623
1719786258.696509,5424,1719786258,725061000,world,-2.020736789663901,-1.9710698573139611,1.2122910599261187,0.017826671434675385,-0.0033092128028645923,0.7051602415157375,0.7088161205006925
1719786258.7064185,5425,1719786258,734359000,world,-2.020731260903164,-1.971096183712289,1.212249726265157,0.01794868257520223,-0.0032649082113023506,0.70515602484812,0.7088174417920203
1719786258.7165432,5426,1719786258,744592000,world,-2.0207296763884437,-1.9711159508879053,1.2122085967779102,0.017909806159073626,-0.003233828740774495,0.7050705543881504,0.7089035862018235
1719786258.726168,5427,1719786258,754158000,world,-2.020731666741065,-1.9710953314031145,1.2121690004939907,0.017925480133172318,-0.0033148023217069163,0.705027094984318,0.7089460378516385
1719786258.7363734,5428,1719786258,765245000,world,-2.0207284685376417,-1.9710832014317858,1.2121185150993978,0.01774049267116172,-0.0034492187851136395,0.7050653544360065,0.7089120000279199
1719786258.7463036,5429,1719786258,778314000,world,-2.020722914622571,-1.9710762594779971,1.212107853510288,0.01755556285518574,-0.003618691734645054,0.7050466250019485,0.7089343861432658
1719786258.7561913,5430,1719786258,788155000,world,-2.020695698626538,-1.9710982517962232,1.2120525572386602,0.01733308660140875,-0.0036576627746696525,0.7050673927982312,0.7089190061104299
1719786258.766338,5431,1719786258,796858000,world,-2.0206832539534045,-1.9711011595233916,1.2120143735918643,0.017095510623041554,-0.0036630514758421804,0.7050469155867675,0.7089451123972915
1719786258.7763753,5432,1719786258,805523000,world,-2.0206558795130127,-1.9711193076287825,1.2119880248758919,0.01699715102530369,-0.0036195973799471475,0.705035285085248,0.7089592669234202
1719786258.786498,5433,1719786258,814511000,world,-2.0206322564664263,-1.9711226024783277,1.2119668377152513,0.01699913806355219,-0.003620060791162604,0.7050120731505151,0.708982299621773
1719786258.7963269,5434,1719786258,825175000,world,-2.020595025281399,-1.9711207225606935,1.2119597162836815,0.017023911632880768,-0.0034292778689422204,0.7050520840487341,0.7089428645980931
1719786258.8063283,5435,1719786258,834228000,world,-2.020564237384944,-1.9711477121314138,1.2119645353888702,0.017147250577776885,-0.003400175267402399,0.7051150241147873,0.708877431840919
1719786258.8162222,5436,1719786258,845136000,world,-2.020518246761921,-1.9711500307647658,1.2119423640461366,0.01731611357577138,-0.00329523467812046,0.7050581094215908,0.708930430985932
1719786258.826257,5437,1719786258,854550000,world,-2.020458080367775,-1.9711532289568512,1.2119241240869478,0.017443379312055612,-0.0032292907624836336,0.7049657987289005,0.7090194093407249
1719786258.8363562,5438,1719786258,863941000,world,-2.0204147927024736,-1.971145128013205,1.211914671939229,0.017470983733628515,-0.0031617628046171206,0.7048875224786014,0.709096854200698
1719786258.8466384,5439,1719786258,874897000,world,-2.0204089643631176,-1.9711737181284137,1.2119503512334113,0.01736628297573719,-0.003233757232133188,0.704885584857928,0.709101027561847
1719786258.8562465,5440,1719786258,884449000,world,-2.0203917496388533,-1.971215799887083,1.2119601274221148,0.017192489956664263,-0.0032999840667786305,0.7048960311649639,0.7090945731297987
1719786258.866243,5441,1719786258,894494000,world,-2.020375510448149,-1.9712078051318112,1.2119453410065264,0.017138658522879394,-0.003328342438716953,0.7048866432109855,0.7091050759537657
1719786258.8762918,5442,1719786258,904300000,world,-2.0203421413568505,-1.9711862639376492,1.2119237525962907,0.017164778444394905,-0.0033595491790677032,0.704873379820843,0.709117481261187
1719786258.8863494,5443,1719786258,914389000,world,-2.020318627122164,-1.9711691608904502,1.2119230499553562,0.01720570216229927,-0.0035065362230434147,0.7048798619409279,0.7091093344802036
1719786258.8964846,5444,1719786258,926281000,world,-2.020276435846218,-1.9711420102661472,1.2119099452243123,0.017085316377267557,-0.0035277617890631463,0.7049047850392482,0.7090873647794181
1719786258.906371,5445,1719786258,934348000,world,-2.0202516846702894,-1.9711709156888404,1.2119185976666669,0.017049427614964453,-0.0037121170773558535,0.704937814487588,0.7090544513013576
1719786258.916556,5446,1719786258,943977000,world,-2.0202333163165505,-1.9712186153791156,1.2119400469706156,0.016910738928700958,-0.0036733011781456674,0.704927267345731,0.7090684603899826
1719786258.926729,5447,1719786258,955162000,world,-2.0202070232103577,-1.9712453014896798,1.2119294206602922,0.016869121064607993,-0.0037176099296205886,0.704985756970218,0.7090110680377617
1719786258.9365764,5448,1719786258,964220000,world,-2.020185001433569,-1.9712309902619558,1.211919850532316,0.016919745950643057,-0.003698285459896438,0.7050074301970852,0.7089884119282381
1719786258.9467528,5449,1719786258,975072000,world,-2.0201627581691013,-1.9712192758275142,1.2119600543587246,0.016909399654148394,-0.003654229953802382,0.7049811991441122,0.7090149699830821
1719786258.9562614,5450,1719786258,984360000,world,-2.0201454816047257,-1.9712160498486149,1.2119434330577097,0.016764523019561807,-0.0036784065591825856,0.7049816536041148,0.7090178334673396
1719786258.9665601,5451,1719786258,994020000,world,-2.0201245628592788,-1.9712204805997802,1.211936155184602,0.016733350228534224,-0.0037944874975259567,0.7049892353703658,0.7090104194344871
1719786258.976405,5452,1719786259,4443000,world,-2.020100995582523,-1.9712505615049585,1.2119131777058223,0.016628868287671537,-0.003944862177156607,0.7049565155975357,0.7090445895135623
1719786258.9862902,5453,1719786259,14195000,world,-2.020082604258763,-1.9712659396172147,1.2118897049046673,0.016599109291040484,-0.0039561320785189025,0.7049135960994881,0.7090878934404459
1719786258.9972007,5454,1719786259,25914000,world,-2.0200675272510544,-1.9712706203369668,1.2118661748839816,0.01650862238399236,-0.0039521090759846,0.7048282740543284,0.7091748376207597
1719786259.0062628,5455,1719786259,35043000,world,-2.0200808070354697,-1.9712769815653093,1.2118277977697693,0.01647565264707086,-0.003987546399345076,0.704811388948181,0.7091921871767216
1719786259.016327,5456,1719786259,44155000,world,-2.02007499067636,-1.9712799467244573,1.211803693983362,0.01625772055290275,-0.004100544039345549,0.7048325778610547,0.7091755137106367
1719786259.0266442,5457,1719786259,54354000,world,-2.0200613779673637,-1.971250950160199,1.2117360678465334,0.01624983629028885,-0.00413850664624241,0.7048680032768565,0.7091402636571804
1719786259.0363958,5458,1719786259,64371000,world,-2.0200223598290723,-1.9712559878894733,1.2116858519784794,0.01622254035227082,-0.0041067036605419785,0.7048513510079177,0.7091576250396499
1719786259.0466871,5459,1719786259,75171000,world,-2.0199788702657786,-1.9712712996234885,1.2116704352447085,0.016354638887358674,-0.003989489947113687,0.7048390371676002,0.7091674988615004
1719786259.0564172,5460,1719786259,85177000,world,-2.019943625036388,-1.9712939007099208,1.2116318323265853,0.016463057277352193,-0.0040081577181322724,0.7048705292841074,0.7091335835817758
1719786259.066382,5461,1719786259,94204000,world,-2.0199134550622486,-1.971308934346943,1.211573718543091,0.01647973779624598,-0.004047787968242848,0.704880942396987,0.7091226203557934
1719786259.0763009,5462,1719786259,104563000,world,-2.0198933189523047,-1.9713180619131014,1.21155104785823,0.016467765350829028,-0.0040433922831395065,0.7048423683133911,0.7091612648146858
1719786259.0861812,5463,1719786259,114670000,world,-2.0198846621013473,-1.971356021615815,1.2115165746761385,0.016450604868959173,-0.004032078810386328,0.7048235042935681,0.7091804761379481
1719786259.096236,5464,1719786259,124940000,world,-2.0198667894210818,-1.9713209817332058,1.2114766060682503,0.016519534370036282,-0.004037290457676038,0.7048295914866329,0.7091727943419316
1719786259.1067696,5465,1719786259,134431000,world,-2.0198321386060933,-1.9713013534692037,1.211449233190426,0.016540002115063516,-0.0041360790639899175,0.7048334161686136,0.709167946703806
1719786259.1163082,5466,1719786259,152537000,world,-2.019812320512685,-1.9713302686705823,1.2114460381006045,0.01658029039271347,-0.004165017039530979,0.7048281909092544,0.7091720298370074
1719786259.116467,5467,1719786259,154239000,world,-2.019797889780368,-1.971344836064015,1.2114215011414462,0.016558187644850182,-0.004063635341384111,0.7048117054672399,0.7091895184829587
1719786259.1362104,5468,1719786259,164359000,world,-2.0197787789533743,-1.971369279804992,1.2114024756179502,0.016584244189847212,-0.004031466395723271,0.7047929278695015,0.7092077544334152
1719786259.1468794,5469,1719786259,178516000,world,-2.0197639239711904,-1.9713694661789445,1.2114215225074034,0.01665718116208959,-0.0039181262227427115,0.704841620187964,0.709158287728094
1719786259.1562514,5470,1719786259,187560000,world,-2.0197587708777895,-1.9713647995532297,1.211479584211513,0.01668898653194775,-0.0038997913172160704,0.7048602316214022,0.7091391423654755
1719786259.166814,5471,1719786259,195836000,world,-2.0197563576555657,-1.9713448772197018,1.211525629561085,0.016613116082773265,-0.003830733207726993,0.7049074741429324,0.7090943398127945
1719786259.1768298,5472,1719786259,205133000,world,-2.019761349862733,-1.971374209846288,1.2116125264729736,0.01662928239579893,-0.003891474082215424,0.7049602796071154,0.7090411324970689
1719786259.1864827,5473,1719786259,214438000,world,-2.0197610084082585,-1.9713850228162877,1.2116932020624007,0.01662357426027497,-0.0038880983307147386,0.7049329545130331,0.709068451640397
1719786259.1963272,5474,1719786259,225163000,world,-2.0197287988584263,-1.9713947942479315,1.2117655842175388,0.016781918949986704,-0.003949218829978363,0.7049313088828273,0.7090660199330757
1719786259.2065258,5475,1719786259,234345000,world,-2.019696109654692,-1.9713715021943101,1.2118303140187061,0.016869995621497224,-0.003917637641841965,0.7048682823525487,0.7091267586943857
1719786259.216496,5476,1719786259,245124000,world,-2.0196891860647086,-1.9714044653368834,1.2119483310037251,0.01694214661359444,-0.0037868533142647338,0.7048069839518557,0.7091866741435491
1719786259.2266495,5477,1719786259,254746000,world,-2.0196932507957057,-1.9714448258801973,1.212049252874144,0.016799332794242672,-0.0036594206614860097,0.7047660858990946,0.7092313834176831
1719786259.2362742,5478,1719786259,263993000,world,-2.019706449914081,-1.9714691662742727,1.212181925128416,0.016714129958804797,-0.0037430840383592357,0.7048014598631059,0.7091978069314911
1719786259.2463963,5479,1719786259,274979000,world,-2.0197204323699336,-1.9714630893309912,1.2123208829775973,0.016521288016915728,-0.0036937089504097383,0.7048804695244232,0.7091240563113627
1719786259.2563014,5480,1719786259,284530000,world,-2.0197187339405214,-1.9714566557472561,1.2124406565711896,0.01642339772892035,-0.0037552977298707753,0.7049357233361377,0.7090710794487066
1719786259.2668717,5481,1719786259,294336000,world,-2.0196928850111737,-1.9714431287749719,1.212567305007872,0.016492457938496897,-0.0036529335674040336,0.7049940154726224,0.7090120542383516
1719786259.2767406,5482,1719786259,304744000,world,-2.0196656375608217,-1.9714655931467608,1.21271580766225,0.016602139146045608,-0.0036411772755475568,0.705015865436653,0.7089878280241705
1719786259.286478,5483,1719786259,314177000,world,-2.01966233921375,-1.9715011638831648,1.2129058145392293,0.016629496645249205,-0.003567792566396932,0.7050262463690803,0.7089772370311008
1719786259.2963214,5484,1719786259,325991000,world,-2.01964237167968,-1.9714688334072228,1.2130557741621417,0.016634834312921617,-0.003511927255672996,0.7050311640503745,0.7089725004343305
1719786259.306185,5485,1719786259,334030000,world,-2.0196473982356125,-1.971494569332256,1.21320799607679,0.016659994029339698,-0.0035013389806302217,0.705021631147683,0.7089814418150489
1719786259.3163993,5486,1719786259,344164000,world,-2.0196495198562547,-1.9715230135064172,1.213389856864154,0.016640179262070988,-0.0034810272899871353,0.7050834987074892,0.7089204798378579
1719786259.326187,5487,1719786259,355891000,world,-2.0196668563078175,-1.9715437883702118,1.2135624120874051,0.016630105994422335,-0.0035745941027904753,0.705071992862812,0.7089316939819219
1719786259.336438,5488,1719786259,364290000,world,-2.019666569633349,-1.9715198775146567,1.2137126333589476,0.016627425034334453,-0.003672023238870529,0.7050396935061749,0.70896338097449
1719786259.3467433,5489,1719786259,375281000,world,-2.0196622101754467,-1.9715073599129624,1.2138992177697092,0.016660119681075242,-0.003602850089266883,0.7049833642621242,0.7090189814081876
1719786259.3563817,5490,1719786259,384698000,world,-2.0196497687481165,-1.9715166685073573,1.2140771189978603,0.0167788701103612,-0.0035609102159721503,0.7049639955033282,0.7090356510643431
1719786259.3662682,5491,1719786259,394131000,world,-2.0196488759082754,-1.9715393696779628,1.2142584054849281,0.016784817723552496,-0.003596205042672598,0.7049387704804645,0.7090604114437424
1719786259.3765414,5492,1719786259,404712000,world,-2.0196282838605306,-1.9715396367355118,1.214448054117485,0.016770723944510426,-0.0036436817256564405,0.7049416636056332,0.7090576262299008
1719786259.3866022,5493,1719786259,414178000,world,-2.0196343267358348,-1.9715261128791985,1.2146192136026666,0.01664849826230739,-0.003627204000349437,0.7049570440727438,0.7090452996170057
1719786259.3962543,5494,1719786259,428257000,world,-2.01965437468312,-1.9715361482868359,1.2147644556379722,0.016697215491228865,-0.003742884877416971,0.7049565278097131,0.7090440661243186
1719786259.4066656,5495,1719786259,437653000,world,-2.019664077966786,-1.9715490593647702,1.2149198994487826,0.01678792510331246,-0.0038125315584747743,0.7049641990378662,0.7090339260209917
1719786259.416229,5496,1719786259,446078000,world,-2.0196571325554653,-1.9715705880678205,1.2151559014708844,0.0168735823956743,-0.003781017576854494,0.704978219058667,0.7090181216133268
1719786259.4263127,5497,1719786259,455612000,world,-2.0196481649853872,-1.9715710504277024,1.2154112518722464,0.017044794308287144,-0.0038452888421731434,0.7050248842015991,0.7089672780863939
1719786259.4361863,5498,1719786259,464360000,world,-2.019616127366017,-1.9715077907354643,1.2155959359970647,0.017169634443810304,-0.0038654787008910074,0.7049886139472029,0.7090002228012913
1719786259.4462736,5499,1719786259,474949000,world,-2.0196065787049644,-1.9715150971390487,1.2157860752941752,0.01732708555073937,-0.0037402396596293835,0.7049365399113307,0.7090488399337854
1719786259.456311,5500,1719786259,485280000,world,-2.019612921670531,-1.9715627395381048,1.2159902388237154,0.017444034597231695,-0.0035806342724361362,0.7048914537327686,0.7090916183185935
1719786259.4669738,5501,1719786259,494232000,world,-2.019626737519447,-1.971582895668957,1.216201482885218,0.01734288376034044,-0.0036251677258019874,0.7048718556513802,0.7091133545861443
1719786259.4765127,5502,1719786259,504553000,world,-2.019626051264108,-1.9715387767002706,1.2163912690411587,0.01731375791014028,-0.003683991144153497,0.7048332220206398,0.709152163595573
1719786259.486374,5503,1719786259,514567000,world,-2.019633893431142,-1.9715389280834896,1.2166320131647241,0.017331266695655486,-0.0037588328595033306,0.7047670170664625,0.7092171388407777
1719786259.4967804,5504,1719786259,524784000,world,-2.019623932275819,-1.9715188019956098,1.2168166213317106,0.01728507296575162,-0.0036698059424044014,0.7047137218306537,0.7092716891576188
1719786259.5067563,5505,1719786259,534295000,world,-2.0196125092579216,-1.9715084219142314,1.2169854950189316,0.017247606752457175,-0.0037815680877422778,0.7046608666608812,0.7093245257291237
1719786259.5164328,5506,1719786259,544305000,world,-2.0196193767441306,-1.9715238002445616,1.2171641385762908,0.017119484118307455,-0.003848842690449649,0.7046291629878796,0.7093587613757
1719786259.5262928,5507,1719786259,554312000,world,-2.01962172392823,-1.9715043127168825,1.2173287815243565,0.017067649789256272,-0.003975614004129795,0.7045754957072645,0.709412616657488
1719786259.5370924,5508,1719786259,564995000,world,-2.019608203919474,-1.9714669975658405,1.2174657208705086,0.016929417377637652,-0.003976267444826548,0.7045193617696314,0.7094716717503049
1719786259.5463796,5509,1719786259,574851000,world,-2.0196132724580367,-1.9714683961068893,1.2176374010645388,0.01701564680268328,-0.004054021904683703,0.7045807185694104,0.7094082348623366
1719786259.5561786,5510,1719786259,584323000,world,-2.019631793859959,-1.9715029975014131,1.217832284701877,0.016966193658882103,-0.003943826349485188,0.7045730382048554,0.7094176684726944
1719786259.566468,5511,1719786259,594413000,world,-2.0196160440554523,-1.971492208995806,1.2179884246496726,0.016932487051445264,-0.00391432272580794,0.7045533598549388,0.709438180588674
1719786259.576511,5512,1719786259,604477000,world,-2.019593390937051,-1.9714187695072876,1.2180967175300927,0.017044045192559473,-0.0038858932265497647,0.7044959130126042,0.7094927123697912
1719786259.586914,5513,1719786259,613919000,world,-2.019571536197402,-1.9714140929404675,1.2182673893429743,0.017100065984546997,-0.003961576578929282,0.7044555577551139,0.7095310146866484
1719786259.5962656,5514,1719786259,625010000,world,-2.019559769242065,-1.9714133367608178,1.2184002327063184,0.017184572191283377,-0.003930923129777888,0.7044359744327758,0.709548586248254
1719786259.6067162,5515,1719786259,634629000,world,-2.0195314380327622,-1.9714280290006243,1.2185284134361878,0.017309446209319373,-0.00390707863807375,0.7043752708456181,0.709605943908029
1719786259.616805,5516,1719786259,644983000,world,-2.019516972964104,-1.9714506988877365,1.2187032644504037,0.017318082047950288,-0.003802356970253217,0.7042592789752055,0.7097214200606989
1719786259.6263626,5517,1719786259,654903000,world,-2.0195180738344694,-1.971462121430476,1.2188136220569241,0.017261919022896068,-0.0037192015319695857,0.7042351767923083,0.7097471447353049
1719786259.6362574,5518,1719786259,664142000,world,-2.019522739618797,-1.9714427457013726,1.2188719795476788,0.017192626852715803,-0.003827025084643271,0.7042182652667077,0.7097650331804559
1719786259.6467087,5519,1719786259,675154000,world,-2.019526495430949,-1.971412114322252,1.2189735148332468,0.017082485718301482,-0.003973725885359825,0.7042223163376492,0.7097628669889037
1719786259.6568704,5520,1719786259,684570000,world,-2.0195263515937514,-1.9713948548458198,1.2191060115685328,0.016972883539092553,-0.0039032662196274923,0.7041680356888976,0.7098197399701044
1719786259.6662874,5521,1719786259,694857000,world,-2.019504769683606,-1.971365419341667,1.2191890034560922,0.016984150598702723,-0.0039451606679873855,0.7041899376819781,0.7097975105642428
1719786259.6763394,5522,1719786259,704709000,world,-2.0194856562325763,-1.971352430546785,1.219265310318231,0.016900814335196194,-0.0038892750805337548,0.7042196866043529,0.7097702931322374
1719786259.6864061,5523,1719786259,713913000,world,-2.0194836665769964,-1.9713868293479038,1.2193831329075853,0.01671979752697624,-0.003873669297545928,0.704236077523685,0.709758402677196
1719786259.6962848,5524,1719786259,726499000,world,-2.0195031796086163,-1.9713930510036757,1.2194689599609083,0.01657926105345225,-0.003971223015796172,0.7042807486180138,0.7097168341083155
1719786259.7068012,5525,1719786259,734587000,world,-2.0195155393096518,-1.971355062489955,1.2195085226318123,0.016498694381407192,-0.004104589407457152,0.704315358664143,0.7096836062495065
1719786259.7166977,5526,1719786259,744228000,world,-2.0195158969378912,-1.971341167980603,1.2195700700861822,0.016515102622685074,-0.004133879821988087,0.7043733087742887,0.7096255380898719
1719786259.726584,5527,1719786259,755860000,world,-2.019515730168554,-1.9713310090543987,1.219594462065029,0.016543731714347868,-0.004157765317690419,0.704381184638369,0.709616914014861
1719786259.7362773,5528,1719786259,764207000,world,-2.019505288681844,-1.9713480397708616,1.2196385428541217,0.016605548363571636,-0.004121327198175842,0.7043534327798214,0.7096432287825708
1719786259.7465744,5529,1719786259,775155000,world,-2.0194861134022095,-1.9713361764142328,1.2196989115322134,0.01664783360005771,-0.004125746365785877,0.704353626954301,0.7096420196477032
1719786259.7563949,5530,1719786259,784506000,world,-2.0194715041127314,-1.9713061786890849,1.2197670516741694,0.016553663755472854,-0.004196211663906003,0.7043879022883806,0.7096097879353958
1719786259.7662032,5531,1719786259,794021000,world,-2.0194619467819446,-1.9712776173663022,1.2197461760410822,0.01657316133039195,-0.0042613907563740306,0.7044026429422571,0.7095943119052613
1719786259.77622,5532,1719786259,805039000,world,-2.019435459802424,-1.9712616323842642,1.2197462614984491,0.016683751538955776,-0.00421824399624777,0.7044035739827023,0.7095910539265347
1719786259.7862058,5533,1719786259,817548000,world,-2.0194131636210977,-1.9712951922708335,1.2197806180746997,0.01684973390371958,-0.004104025389789871,0.7044819644263484,0.7095099754344312
1719786259.7962277,5534,1719786259,827975000,world,-2.0194048856482665,-1.9712953641544728,1.2198223575938878,0.017138933920382435,-0.004083720761025401,0.7045701598075231,0.709415583475314
1719786259.806488,5535,1719786259,835769000,world,-2.0193876767704295,-1.9712658145099162,1.2198731911160174,0.0171770286856129,-0.003997369795485065,0.7045847302364528,0.7094006827159648
1719786259.8165596,5536,1719786259,844939000,world,-2.0193762679235983,-1.971213218162027,1.2199474050717376,0.017311084604876445,-0.00397300154532148,0.704597192653715,0.7093851828964483
1719786259.8265724,5537,1719786259,855022000,world,-2.0193559618178116,-1.971204150062035,1.2199706372633912,0.017360096398982425,-0.004019145083858712,0.7046308353463674,0.7093503079613721
1719786259.8362715,5538,1719786259,864453000,world,-2.019345334027607,-1.9711757678998783,1.2199929839256445,0.017303225047536168,-0.004105527736207743,0.7047119242912262,0.709270644258395
1719786259.8464584,5539,1719786259,875134000,world,-2.0193296805103906,-1.9711728752618844,1.2199999220991107,0.017236778382160926,-0.004111218810141551,0.7047482226502363,0.7092361623762796
1719786259.8564432,5540,1719786259,885206000,world,-2.0193243177620537,-1.9711610374527202,1.220041879525199,0.01728539617207257,-0.004105719820691406,0.7047517749178355,0.7092314811781053
1719786259.8662016,5541,1719786259,894306000,world,-2.019320714409718,-1.9711550148803167,1.220071568853914,0.017269040511046625,-0.003993783045097915,0.7048172563255583,0.7091674450526679
1719786259.8764713,5542,1719786259,904571000,world,-2.019303250926739,-1.9711368687693094,1.2201313930877833,0.01729864225445356,-0.004023280576759263,0.7048868319357858,0.7090974011749616
1719786259.8864207,5543,1719786259,914151000,world,-2.0192973159573695,-1.9711350621128751,1.2201595580656142,0.017200405816965206,-0.004025682293576807,0.7049666821968434,0.70902039245298
1719786259.8963153,5544,1719786259,924785000,world,-2.0192933790328587,-1.9711092329541196,1.2201683499228753,0.017168946017801508,-0.004086462495467418,0.7050300257804771,0.7089578202297305
1719786259.9062798,5545,1719786259,934369000,world,-2.019268155189633,-1.9710859786895927,1.2202164590073712,0.01709135400103461,-0.004104586048325934,0.705048254733409,0.7089414619622393
1719786259.916665,5546,1719786259,944893000,world,-2.019234103738803,-1.971072124078102,1.220314575929765,0.017211506416680192,-0.00417825647531883,0.7050821969583283,0.7089043671413742
1719786259.9262075,5547,1719786259,954530000,world,-2.0191923363132847,-1.9710734372913612,1.2203921965838158,0.017371211698518234,-0.004152667778140607,0.7050777291638617,0.7089050657116098
1719786259.9362757,5548,1719786259,964862000,world,-2.0191593317021037,-1.971055045027378,1.2204504043213926,0.01750601281577747,-0.004195712221724823,0.7050979117944003,0.708881421887626
1719786259.9462466,5549,1719786259,974416000,world,-2.019148540462203,-1.9710772277485864,1.2205210924317182,0.01754013739650345,-0.004187544215149721,0.7051205731346458,0.7088580855120625
1719786259.9562888,5550,1719786259,984544000,world,-2.0191316519514397,-1.971071204938548,1.2206107969395994,0.017563284480453766,-0.004219212551397951,0.7051136063570196,0.7088642545748113
1719786259.966229,5551,1719786259,994757000,world,-2.019120724230685,-1.9710373312028089,1.2207034494566233,0.01746209795942023,-0.004259403247222369,0.705148679854209,0.7088316245193209
1719786259.976195,5552,1719786260,4653000,world,-2.0191111551581606,-1.971004169198599,1.2208045403281351,0.017459558825803318,-0.004292857186948231,0.7051915312012478,0.7087888539648607
1719786259.9862175,5553,1719786260,14327000,world,-2.0190935262598098,-1.9709815958666554,1.2209168293954602,0.017415608393205606,-0.0043755309779385555,0.7052529915509487,0.7087282760137296
1719786259.9962823,5554,1719786260,24791000,world,-2.019061940619452,-1.9709748678090349,1.2210282904615803,0.0173994481736783,-0.004371896139892621,0.7051920249180078,0.7087893577921677
1719786260.0061865,5555,1719786260,34421000,world,-2.019039726749602,-1.9709796613068888,1.2211545597560043,0.0173467932603736,-0.004282939658992401,0.7051345010647883,0.7088484186337525
1719786260.0163314,5556,1719786260,44768000,world,-2.0190373075881074,-1.9709823541767866,1.2212770968980808,0.017272012513332786,-0.004381566563224005,0.705118705888117,0.708865353974123
1719786260.0262012,5557,1719786260,54823000,world,-2.019035737107553,-1.970968369333871,1.22139805109641,0.017135209138862163,-0.004498077526966519,0.705086925101158,0.7088995556196399
1719786260.0363452,5558,1719786260,64465000,world,-2.0190268762500057,-1.9709470817990034,1.2214892663545953,0.0171003591891201,-0.004719361797001558,0.705106757000737,0.7088792327129746
1719786260.046196,5559,1719786260,74812000,world,-2.0190114767650478,-1.970950182966051,1.2215965918756446,0.017088682443230405,-0.0046022696612612575,0.7050538140770786,0.7089329413292093
1719786260.0562193,5560,1719786260,84727000,world,-2.018998665118811,-1.9709473264159656,1.221702971752242,0.017104112086396468,-0.004613879837261474,0.7050457669671353,0.7089404967585836
1719786260.0669205,5561,1719786260,94922000,world,-2.0189692179864305,-1.9709302859257143,1.2218052741531975,0.017247583813477144,-0.00446328009538933,0.7050041346790269,0.708979386208699
1719786260.0763366,5562,1719786260,105244000,world,-2.018954624274534,-1.9709067035794021,1.2219308602094645,0.017210681276295162,-0.004440639364621694,0.704894618390325,0.7090893104090608
1719786260.0866048,5563,1719786260,113922000,world,-2.0189282148666745,-1.9709079375877565,1.222047556310804,0.017172819754128633,-0.004430465296095153,0.7048241940595388,0.7091602926752696
1719786260.0962956,5564,1719786260,126414000,world,-2.0189297123724574,-1.9709045869050914,1.2221009036535198,0.017132362400431075,-0.004627400818123494,0.7048148570662075,0.709169293313656
1719786260.106589,5565,1719786260,134597000,world,-2.0189384061409967,-1.9708998258563029,1.2221233118498696,0.017068574053700387,-0.004612791967589478,0.7047516884507221,0.7092337016498111
1719786260.1164086,5566,1719786260,144141000,world,-2.018937504176928,-1.9709348914332114,1.2221876345863547,0.016961130840331046,-0.004758115886144515,0.7047340090630646,0.709252886383786
1719786260.126543,5567,1719786260,155362000,world,-2.018937774479603,-1.970927011826787,1.2222394089954667,0.01694489177372587,-0.004723101106214646,0.7046992551739405,0.7092880393154891
1719786260.1362453,5568,1719786260,164237000,world,-2.018902415956115,-1.9708811311069205,1.22227471702655,0.016840638790318753,-0.004749301578664753,0.7046628993166297,0.7093264659846906
1719786260.1468472,5569,1719786260,178255000,world,-2.0188754084949605,-1.9708577326224799,1.222301691508462,0.01684180960500365,-0.00464929751672361,0.7045882885619289,0.7094012130686005
1719786260.1566615,5570,1719786260,188270000,world,-2.0188393710996997,-1.9708432765812784,1.2223487177405379,0.016760923015509608,-0.0045805069707837865,0.7045311957522987,0.7094602769904703
1719786260.1662047,5571,1719786260,196761000,world,-2.0188100830478684,-1.9708506108277941,1.2223385231774804,0.016734388161252597,-0.004499685555475014,0.7045099368014053,0.7094825311668007
1719786260.1776462,5572,1719786260,205815000,world,-2.018796643118862,-1.9708479871541433,1.2223532411700295,0.016523537176382722,-0.00462605231018001,0.7044801122974386,0.7095162744691573
1719786260.1864777,5573,1719786260,214403000,world,-2.01878829214893,-1.970853082154081,1.222397524858356,0.01642210343102841,-0.004554569166288019,0.7045156982435987,0.7094837569296035
1719786260.1969378,5574,1719786260,227470000,world,-2.0187910257905246,-1.970836705994006,1.2224080780460562,0.01631357366199367,-0.004694723014577425,0.7045741693081344,0.7094272808638976
1719786260.2069848,5575,1719786260,235731000,world,-2.0187580274841284,-1.9707865920892205,1.2224061970100077,0.016389354596531156,-0.004673733185594734,0.704594902776578,0.7094050805113281
1719786260.2263074,5576,1719786260,244811000,world,-2.0187263158698987,-1.9707896201631792,1.2224113774694103,0.016518168265942546,-0.004627216096750223,0.7045926337589247,0.7094046514091897
1719786260.2267306,5577,1719786260,254453000,world,-2.0187031790651075,-1.9707758788809386,1.2223599560342617,0.01670230590797974,-0.004563388823632981,0.7045736599966812,0.7094195980508867
1719786260.2365751,5578,1719786260,264923000,world,-2.018666243891544,-1.9707620334840579,1.2223150338429545,0.01676082592137113,-0.004539692702015962,0.7045025594326857,0.7094889778265764
1719786260.2477834,5579,1719786260,278513000,world,-2.0186474328338253,-1.970751780643229,1.2222684743156693,0.01680736671000581,-0.0044070806749256465,0.704422697283327,0.7095680049271404
1719786260.2568917,5580,1719786260,287556000,world,-2.018639158458175,-1.970757942699278,1.2222004788220333,0.01672811538820683,-0.004376817571340132,0.7043967561276366,0.7095958170538839
1719786260.266344,5581,1719786260,295310000,world,-2.018637519209949,-1.9707294954454784,1.2220486253248597,0.01661345713514839,-0.004479199282068334,0.7044223651526352,0.7095724496403293
1719786260.2764149,5582,1719786260,304815000,world,-2.0186379409969537,-1.9706973556295464,1.2218975712666833,0.016327048715778038,-0.004525559455315501,0.7044693121791097,0.7095321944702307
1719786260.2863686,5583,1719786260,314548000,world,-2.0186302834545082,-1.9706652263463351,1.2217378805976014,0.01627288785875271,-0.004549608964392926,0.7045215553927847,0.7094814107261296
1719786260.2968848,5584,1719786260,324503000,world,-2.0185989737264656,-1.9706390276985843,1.2215619830334679,0.016272245139926925,-0.004525033679865562,0.7045472993385132,0.7094560177369065
1719786260.306702,5585,1719786260,334945000,world,-2.0185626161004926,-1.9705839474072069,1.2213576088005014,0.01627714783869329,-0.0043569899089576855,0.704624539673436,0.7093802430200388
1719786260.3163514,5586,1719786260,344477000,world,-2.018446227820519,-1.9704720153361863,1.2210842607083607,0.016303312548897317,-0.0022345972572045277,0.7039808678302417,0.7100282714822072
1719786260.3263476,5587,1719786260,354374000,world,-2.0176747298324638,-1.9699525927423047,1.2211292460035033,0.01830688429546204,0.008325422838138665,0.7044053947937949,0.7095129210291781
1719786260.3374813,5588,1719786260,364958000,world,-2.0167345771140246,-1.9687738869497913,1.2213391647667118,0.017361988116652096,0.024637035457405435,0.705442704020815,0.7081258145247273
1719786260.3384054,5589,1719786260,375073000,world,-2.0156153185511156,-1.9663170538792296,1.2222214857359945,0.01163540010014295,0.052425199089334684,0.7109315172474406,0.7012079532843345
1719786260.3564193,5590,1719786260,384757000,world,-2.0134630745715256,-1.9629623536607186,1.222273587779799,0.0010546318151321875,0.08979099836396437,0.7084935430314607,0.6999809739180521
1719786260.3664415,5591,1719786260,394657000,world,-2.0103533430247262,-1.9591279198589473,1.2241783171885119,0.0019237350636162913,0.13969544141991105,0.7053966077588714,0.6949079857450038
1719786260.3763855,5592,1719786260,404935000,world,-2.0065823727092,-1.9539451976262885,1.2248440899073603,-0.006454613441887478,0.19845653391708093,0.6977099892777217,0.6883125111263169
1719786260.3868153,5593,1719786260,414290000,world,-2.0016895914968442,-1.9482542798902218,1.2259588081564672,-0.0075702341681765,0.266252602929351,0.6853324267147862,0.6777696569493257
1719786260.3968987,5594,1719786260,424907000,world,-1.9961655039198458,-1.942391316493968,1.2250533510249362,-0.009302158455307049,0.33530175332770973,0.667076565044923,0.6652030219649508
1719786260.4065564,5595,1719786260,434744000,world,-1.9908769977988945,-1.935230867878342,1.225445205246442,-0.010604104382791402,0.40439660670913075,0.6474089723109246,0.6459199331369886
1719786260.4168363,5596,1719786260,445011000,world,-1.985215032552462,-1.9277734733023966,1.225942293109576,-0.01626897715828933,0.47303810539103214,0.6240370617203524,0.6217298584029199
1719786260.4264023,5597,1719786260,454870000,world,-1.9790045488608425,-1.919040421689807,1.2253181854354005,-0.02190328553262713,0.5292464866741499,0.6026293474548712,0.5968720734060702
1719786260.4364603,5598,1719786260,464127000,world,-1.971593838261015,-1.909635080764424,1.2249593201835007,-0.02633852213005678,0.5838621041415049,0.5751834374387529,0.5723419772265522
1719786260.4465175,5599,1719786260,474980000,world,-1.9637503593744816,-1.8973517735536765,1.2247686399977085,-0.03792368018808477,0.6177769459463192,0.5612039131400299,0.5495121540189519
1719786260.4564211,5600,1719786260,484706000,world,-1.956984956502445,-1.8862168805137434,1.224346485326125,-0.05570990427491322,0.6553952059082714,0.5464650725992248,0.5183912181617841
1719786260.4663105,5601,1719786260,494226000,world,-1.9492640874039577,-1.8736739630379033,1.224373546839475,-0.07570861421412668,0.67927959103519,0.5390538502249793,0.49220766907319424
1719786260.4763198,5602,1719786260,505492000,world,-1.9408203307735603,-1.8602302554657086,1.2240225352987093,-0.09741615109377344,0.6962530356151181,0.5371035237863054,0.46611330021695574
1719786260.4864268,5603,1719786260,514148000,world,-1.9296823611604472,-1.8433626565293701,1.2237015023512878,-0.10824273358169677,0.7050044828042249,0.5353477758204818,0.452388051098581
1719786260.4962285,5604,1719786260,525679000,world,-1.9179393069789703,-1.8250618421418545,1.222609575562086,-0.12240587105143189,0.7084057596946188,0.5390640403164719,0.4388485419838051
1719786260.5062208,5605,1719786260,535027000,world,-1.9049753570829602,-1.8044458169421884,1.2208973897261093,-0.13550681364057426,0.7077763975343383,0.5452075312478687,0.42829805325368586
1719786260.516434,5606,1719786260,544112000,world,-1.8908557810746358,-1.7811419502280028,1.2187262060690218,-0.14477970923765898,0.7048805237090409,0.5535887769970869,0.41919178077772135
1719786260.5264895,5607,1719786260,555963000,world,-1.8757559385388072,-1.7568257054200134,1.21474092691016,-0.1572806951022703,0.700112664250723,0.5603742635852559,0.4136251020129016
1719786260.5266142,5608,1719786260,564136000,world,-1.8593615647114334,-1.7297799224441641,1.2110067698998181,-0.15993856986431462,0.6940909923211742,0.567948963580873,0.4124212931163688
1719786260.5462222,5609,1719786260,575327000,world,-1.8416680058311912,-1.7007175927165952,1.2058418872852512,-0.16264571151475704,0.6874413808321868,0.5738366467108248,0.41434553616163283
1719786260.5562367,5610,1719786260,585264000,world,-1.823124027428174,-1.6694239902590664,1.2000809819517497,-0.16514439630099667,0.6785921876898917,0.5810297509031713,0.4179047735334272
1719786260.5662072,5611,1719786260,594278000,world,-1.8036643917758188,-1.6359007414096192,1.1932253726524416,-0.16727669674418702,0.6682912628998421,0.5883979116057975,0.42331216882582506
1719786260.5767272,5612,1719786260,605552000,world,-1.7834738326212596,-1.6000684704599655,1.1859141579431378,-0.16915807228942933,0.6565551230366918,0.5971920945760707,0.42858198652001706
1719786260.586492,5613,1719786260,614297000,world,-1.7621652334377405,-1.5617954440457265,1.1781841884018642,-0.16883415397920065,0.6442925413305414,0.6051563991949006,0.4360824258662834
1719786260.596189,5614,1719786260,625231000,world,-1.7401939010175544,-1.5214354896085314,1.1697496691467866,-0.16827303457279671,0.6298367262226876,0.6146460371769178,0.4440722161084398
1719786260.6065648,5615,1719786260,634854000,world,-1.7173792477318206,-1.4788743916754223,1.160985721614737,-0.16673704666582084,0.6159224835750248,0.6226416143737925,0.452941134747034
1719786260.6163955,5616,1719786260,644190000,world,-1.693497982695982,-1.433610029870518,1.1515516639391878,-0.1644210302775085,0.6018126321421219,0.6298997049674043,0.46261608519228015
1719786260.6262748,5617,1719786260,655681000,world,-1.6686370915958713,-1.385951908882089,1.14200196693868,-0.16074284462584865,0.5879044457993022,0.6357861105200654,0.47360967281166566
1719786260.636213,5618,1719786260,664173000,world,-1.642566371527593,-1.33555554313238,1.1326484987435028,-0.15175098740734339,0.5729854848891962,0.640672888768249,0.48805483454683246
1719786260.6462796,5619,1719786260,674995000,world,-1.6157074790352834,-1.284060739752852,1.1227564710331803,-0.14447102412719118,0.5584846046494325,0.6445390279703871,0.5017893093522381
1719786260.6563094,5620,1719786260,685510000,world,-1.58758180090079,-1.2299891993359475,1.1128689232394997,-0.13452674598889217,0.5458229890026177,0.6455138266140357,0.5170026295290896
1719786260.6672258,5621,1719786260,694486000,world,-1.558924123518128,-1.1735103470167505,1.103494469317165,-0.12362912802093029,0.531770311624434,0.6477336713675366,0.5313918190529179
1719786260.6770136,5622,1719786260,704591000,world,-1.528958009732038,-1.115148215258643,1.0939959023402768,-0.11378736103477102,0.519108664834609,0.6481054261811826,0.5454704273531976
1719786260.6872592,5623,1719786260,715112000,world,-1.4974170152082087,-1.0548974216437024,1.0847544131912312,-0.10127189466167782,0.507589052684501,0.6447314910250569,0.5625110322714499
1719786260.6961896,5624,1719786260,724795000,world,-1.4650721857728881,-0.9927446980612797,1.0760262330507262,-0.08770883936318513,0.4948922987699417,0.6423309211844184,0.5786188381016836
1719786260.706701,5625,1719786260,734355000,world,-1.4315894832990654,-0.9286661770557063,1.0677917804937154,-0.0741739251205334,0.48285688998981297,0.6388737799803732,0.5942960086313629
1719786260.7162368,5626,1719786260,744513000,world,-1.3969822525529663,-0.8627983320103083,1.0603192054170043,-0.06101288548340651,0.4698349051929025,0.6351269505913023,0.6100379875876244
1719786260.7262337,5627,1719786260,754273000,world,-1.3612172372450233,-0.7951326951776261,1.0536307914159935,-0.047915968384093656,0.45671992391380006,0.6309976921963764,0.6252622517926653
1719786260.7367275,5628,1719786260,765450000,world,-1.3240192527865804,-0.7262532972509764,1.0475429767115858,-0.0336882544147919,0.4435840627908506,0.6258974137968223,0.6405862222643384
1719786260.7465312,5629,1719786260,774738000,world,-1.2855448554480613,-0.6561327475622556,1.0422780715244777,-0.017764952887436528,0.43062431483803953,0.6195747515323858,0.6560291404981632
1719786260.7565017,5630,1719786260,784730000,world,-1.2456356702779894,-0.5844414533861092,1.0381643671270155,-0.0004487359484222004,0.4171138257704826,0.6121813527420233,0.6717513277561175
1719786260.7662954,5631,1719786260,794400000,world,-1.2047888256874473,-0.5116225241861632,1.0344169154772327,0.013607428614408262,0.40219932117133483,0.6048723533970788,0.6871535345406447
1719786260.7767994,5632,1719786260,804855000,world,-1.1623539490657187,-0.43835764705686203,1.0318503304655124,0.030427735342769862,0.38800112225280387,0.5970578908899055,0.7014635820757716
1719786260.7862809,5633,1719786260,814229000,world,-1.1182820338844168,-0.36458645162200143,1.0301771025803863,0.049635698625520266,0.3745416070761136,0.586950673125731,0.7160613027583951
1719786260.7962713,5634,1719786260,824492000,world,-1.072818450431621,-0.2901315073893037,1.0298676170890322,0.07347672043657189,0.3608979308907667,0.5764064154927923,0.7294583601627991
1719786260.8063617,5635,1719786260,834708000,world,-1.026065708000314,-0.21566338965923468,1.0302061516468206,0.09656744970933022,0.34649871458769865,0.5644487369245621,0.7429744220563553
1719786260.8163903,5636,1719786260,844885000,world,-0.9780229948179882,-0.14101397969534155,1.0315384176278761,0.12104528503930062,0.3304256965821848,0.551787060498715,0.7561070941831721
1719786260.8262043,5637,1719786260,854867000,world,-0.9285613858923176,-0.06655489674418372,1.0338814257328763,0.1458405541742766,0.3140615571949489,0.5382629669272246,0.7683546378366732
1719786260.8363328,5638,1719786260,864446000,world,-0.8775489344909534,0.007617221130708993,1.0372597901745806,0.17400967230972175,0.2955895125899441,0.5227073155231343,0.7804643081449026
1719786260.8463612,5639,1719786260,875211000,world,-0.8257371719369527,0.08172188619525957,1.0411001630139898,0.20053476142523016,0.2777320286451792,0.5063456635540139,0.7913689397018339
1719786260.856159,5640,1719786260,884238000,world,-0.7724961486339199,0.15517894201678056,1.0464179948121222,0.22733505626720632,0.2574551725970105,0.4896943471752338,0.801395690429922
1719786260.8664415,5641,1719786260,894645000,world,-0.7183833560196843,0.22809015828420615,1.0519969429307554,0.2531225164978001,0.23721769223305073,0.4726781195912026,0.8100815720612162
1719786260.8765545,5642,1719786260,905594000,world,-0.6633821774077189,0.3000735900697831,1.0581097261679342,0.2787301358402849,0.2153777137528164,0.4549643266849663,0.8178810507874367
1719786260.8862216,5643,1719786260,914204000,world,-0.6071243848857109,0.37106681206490655,1.0655174511151886,0.3047299929203242,0.19385775461441815,0.4354367236746015,0.8245930281454992
1719786260.8961804,5644,1719786260,925965000,world,-0.5498316537114103,0.44127036206017306,1.0735449741117942,0.3300455354789422,0.17248556268801724,0.4155027617484464,0.8298651276888493
1719786260.9063873,5645,1719786260,934458000,world,-0.49170977346931166,0.5105771415201192,1.081848644844455,0.3532074489670983,0.15124457400002228,0.3963246796111869,0.8338443051078519
1719786260.9163845,5646,1719786260,943994000,world,-0.4325792754192767,0.5778750836846894,1.0910887656121673,0.37800947892140907,0.1308541522537755,0.3762952360546343,0.835696069157979
1719786260.9268181,5647,1719786260,955191000,world,-0.37277810677660417,0.6438263072143526,1.1004963148842557,0.40401655971285666,0.11014426654711812,0.35634424226506883,0.8352590263080785
1719786260.9365664,5648,1719786260,964362000,world,-0.3128457333629077,0.7094662504472659,1.1095740644906045,0.42419566101819267,0.08935976201255869,0.33728877206142244,0.8356489444423988
1719786260.9465246,5649,1719786260,975289000,world,-0.25190794246284076,0.7737303303132353,1.1192105300307953,0.44207122448936564,0.07131146036730508,0.3185059145797857,0.8354888930898181
1719786260.9562283,5650,1719786260,984683000,world,-0.1906415565237125,0.8359945326742277,1.128850267507432,0.45948176501196114,0.05450144770103401,0.300455479031191,0.8340459249586452
1719786260.9663286,5651,1719786260,994137000,world,-0.12867195482570223,0.8964721531434348,1.13876611790573,0.47612108768574785,0.03900234369837311,0.2835545346591851,0.8314952512920247
1719786260.9762022,5652,1719786261,5695000,world,-0.0667495296621056,0.954546727518613,1.148397661566459,0.4913987214846901,0.023488251936601902,0.26887422588305226,0.8280593271016058
1719786260.9865549,5653,1719786261,14173000,world,-0.004205309574510012,1.0135200522981855,1.1586278787178779,0.5045715082943559,0.006370451293897668,0.24902067886939244,0.8266533202396867
1719786260.9966216,5654,1719786261,25295000,world,0.05846911902454437,1.069500776747971,1.1686720228854652,0.5168852100423165,-0.006989173827366993,0.23301737511160428,0.8237012407328396
1719786261.0067139,5655,1719786261,34635000,world,0.12130667357456568,1.1235983596278354,1.17879126287939,0.5273018230851443,-0.021894530007965502,0.216161393747261,0.8214302580134576
1719786261.016374,5656,1719786261,44356000,world,0.18404649790733596,1.1757284314998602,1.188587224800866,0.5380578866101975,-0.03253347254000089,0.20015819156613082,0.8181515643021368
1719786261.0263412,5657,1719786261,56078000,world,0.24689904784428943,1.2262889587389691,1.1986331585915722,0.5477915169135003,-0.044109920377768945,0.1851889698846646,0.8146679166107685
1719786261.0364006,5658,1719786261,64548000,world,0.3099299840035796,1.2743995818350629,1.2084412731440155,0.5558474145725466,-0.05388585021787696,0.17152632044678334,0.8116087039043504
1719786261.0462306,5659,1719786261,75090000,world,0.3731573398181257,1.3205274161932261,1.217943779249049,0.5631829670475961,-0.06474637265847243,0.15840300843023208,0.8084190372420038
1719786261.0565681,5660,1719786261,85255000,world,0.4354320976765893,1.3649650181907156,1.2268450175894985,0.5719740372419464,-0.07487936839520629,0.1438059117972927,0.8040887019738759
1719786261.0662875,5661,1719786261,94482000,world,0.4981687843788595,1.4076657914931185,1.235826867017018,0.5799084389192589,-0.08250391405783786,0.1307084550139309,0.7998841206220038
1719786261.076207,5662,1719786261,109108000,world,0.5605650258592705,1.4482495683142875,1.244176597677043,0.5875290933478045,-0.091836159127636,0.11435756597852012,0.7958002459474732
1719786261.086308,5663,1719786261,119254000,world,0.6228883500185421,1.4851051783241678,1.253017576968507,0.5904305050956513,-0.10641702888945159,0.0943700638059938,0.7944567487737066
1719786261.0964057,5664,1719786261,126820000,world,0.6850045458876365,1.5212113135355634,1.261023106894992,0.5970578280258192,-0.11040413374978575,0.08357476095151956,0.7901570328586256
1719786261.1062322,5665,1719786261,135771000,world,0.746277958513476,1.5554244579605898,1.2690002580104611,0.6026840415657284,-0.11398573601488059,0.07198382782304501,0.7865097116749973
1719786261.1164718,5666,1719786261,144445000,world,0.8074436463838972,1.5863534823962397,1.2768433955173573,0.6048745677094733,-0.11878548591950536,0.05892463251915123,0.78520357446692
1719786261.1263282,5667,1719786261,159065000,world,0.8681191086298892,1.6151439238860748,1.2838083843505315,0.6125192931683592,-0.1190529530894168,0.050236879622846155,0.7798222655086109
1719786261.1364677,5668,1719786261,166554000,world,0.9286556830068364,1.641211385673408,1.2906797155643857,0.6174096705080893,-0.11819076533825429,0.04074818706729347,0.7766439512431544
1719786261.1464856,5669,1719786261,175086000,world,0.9885756115029483,1.664923230818907,1.2968314543713562,0.6242900040815137,-0.11614376321143613,0.03258698857920062,0.7718229753294007
1719786261.1564436,5670,1719786261,184405000,world,1.0477957241570486,1.687186122915218,1.3024633672788302,0.6353267212819731,-0.10510512307589598,0.029993980054682606,0.7644692482296316
1719786261.1666515,5671,1719786261,195200000,world,1.1066664322941615,1.7056425596795755,1.3080813152724502,0.6386875040441501,-0.10321534045444293,0.021960845817025006,0.7621958979971803
1719786261.1765294,5672,1719786261,205147000,world,1.1645291113828147,1.7203441157789297,1.313003620790675,0.638505883806702,-0.10863847824824426,0.007158164915749542,0.7618770754282918
1719786261.1866643,5673,1719786261,218624000,world,1.2222886914154085,1.733731286637282,1.3176586270819366,0.6403833444110497,-0.10425544956397176,-0.0011011572837666935,0.7609459645006138
1719786261.1966069,5674,1719786261,228687000,world,1.2792708014175487,1.7447669737837521,1.3214337447494349,0.6444707301133226,-0.0993543761178051,-0.00891154492198398,0.7580941698367994
1719786261.2062664,5675,1719786261,236511000,world,1.3356381822585317,1.7529813093086533,1.3247892240508083,0.6466537625517244,-0.09527305896119262,-0.017888160019294302,0.7565989488130417
1719786261.2165031,5676,1719786261,244820000,world,1.391177690813413,1.7586838115652845,1.327553757252199,0.6490483551235198,-0.09131504715422785,-0.02698680438224925,0.7547645376300539
1719786261.2263508,5677,1719786261,255040000,world,1.4459893463158235,1.7618647726332823,1.3298264141808929,0.6497498521621279,-0.08809031225631048,-0.037323827412590584,0.7541035462117612
