Time,header.seq,header.stamp.secs,header.stamp.nsecs,header.frame_id,accel.linear.x,accel.linear.y,accel.linear.z,accel.angular.x,accel.angular.y,accel.angular.z
1719786224.5497603,2009,1719786224,575894000,world,0.16409853822452192,0.11339420106226683,0.26479334042872615,-0.004294029650124725,-0.00581508410701599,-0.0004815061348521579
1719786224.5565608,2010,1719786224,585231000,world,0.0007368685084330195,0.12643288739955238,-0.14048712797948282,0.0023117234331307473,0.01970795099535656,0.004053588948433267
1719786224.575028,2011,1719786224,594781000,world,-0.06913457119228639,-0.014352080111024179,-0.2361239502116086,-0.0008577951639417783,-0.01499462370134347,-0.00931996440876433
1719786224.5750399,2012,1719786224,604701000,world,0.024752160965313408,-0.3002088820269755,0.3119707552240447,0.006650788103603722,0.007620223406357416,0.008157303519607147
1719786224.5868113,2013,1719786224,614382000,world,-0.11964563781940996,-0.0870011290809991,-0.10917472938964945,-0.0025678735801817256,-0.015405494884269963,-0.0038799077954375137
1719786224.5966294,2014,1719786224,624734000,world,0.07356957272719455,0.012836988154685258,0.009497042082196039,-0.01133148605047847,-0.00029648957921952525,0.009165879790172983
1719786224.6067371,2015,1719786224,634924000,world,0.13080755266514643,0.5041648132708687,-0.0005501708122412907,0.010041830513448083,0.011556955457601813,-0.012404346769619861
1719786224.6166515,2016,1719786224,644685000,world,-0.17003658345782213,-0.1842664053564036,0.0028354512376926877,0.0031139525905322417,0.0013241640289498723,0.0033578185373275915
1719786224.6266475,2017,1719786224,654441000,world,0.031746789619369054,-0.24920200741629372,-0.025461618908817485,0.000724281994745511,0.003974517639767067,-1.0923155411724771e-05
1719786224.6369572,2018,1719786224,664249000,world,0.062037801145109484,-0.04492433380187677,0.04904321108140097,-0.006833298281980629,-0.00919077451875837,-0.0025454942751487117
1719786224.6469712,2019,1719786224,675173000,world,-0.0889426256378556,-0.3255340015306807,0.16305355767798346,-0.008274659870368455,-0.005841343164486429,0.008557153526518438
1719786224.6567318,2020,1719786224,684436000,world,0.12799029428300912,0.4629718273663208,-0.15961983924561718,0.011472770761130482,0.01099767268271557,-0.005646288744660902
1719786224.666815,2021,1719786224,694373000,world,-0.11900135028497516,0.4473133424842679,-0.28508309086267003,-0.0027896785449893196,-0.0013012338196043943,-0.0026152706135768454
1719786224.6765783,2022,1719786224,704376000,world,0.15355775083936152,-0.0977875845697973,0.14787972165364316,0.007189669510928429,0.009770510911263151,0.007217724834844944
1719786224.686696,2023,1719786224,715038000,world,-0.05457655496865499,-0.41064314420857784,0.03790830965022529,-0.010577770474460972,-0.010866103337040744,-0.0032583132047867003
1719786224.6968164,2024,1719786224,725280000,world,-0.11597284772513206,-0.12208127819768322,-0.04537536559157118,0.006323297920170104,-0.0049146941182208964,0.0023309104098784427
1719786224.7077696,2025,1719786224,734380000,world,0.12216335640857778,0.17141505823436987,0.239440047501982,-0.008640590491931823,-0.004208373288972541,0.0009083560098460293
1719786224.7077925,2026,1719786224,744165000,world,0.0725593230344046,0.33826125477753877,0.22423856888192928,0.007415848234634865,0.01609402008745323,-0.012917650035868967
1719786224.7276766,2027,1719786224,754362000,world,-0.13403289400581997,0.043601125045977795,-0.4478676519734104,-0.004544871578664985,-0.0036419515948989184,0.009877199260930593
1719786224.7375486,2028,1719786224,764253000,world,0.02801269482155533,-0.4665509076140495,-0.07879441000890886,0.008394937346875162,-0.0038022901558754027,-0.0029352419237875004
1719786224.7473,2029,1719786224,774953000,world,-0.03200072260511888,-0.09879929213862937,0.11220271042583496,-0.006281559482642268,-0.00853649115546648,0.006911373267291374
1719786224.747501,2030,1719786224,784310000,world,0.07030416876219192,0.13474450953454564,0.047279075643114066,0.0064676028738278836,0.0060403276378701585,-0.002544880913138259
1719786224.7670248,2031,1719786224,794622000,world,-0.08336972817879484,0.47412346533270977,-0.037140072768893084,-0.005644404852617083,0.003926365614738745,-0.007202583169495943
1719786224.7772303,2032,1719786224,808619000,world,0.016372385722718263,-0.11919186396758263,0.29396736394848855,0.00011649925492273945,0.008340302146274155,0.0034667238524800693
1719786224.7870686,2033,1719786224,817991000,world,0.03073703741307554,-0.3476578487582316,-0.07922584081720974,-0.0015365271740315645,-0.007108416040240008,0.002377341907561782
1719786224.7975538,2034,1719786224,825762000,world,-0.06849726148505653,-0.03738997186752968,-0.3839852250536735,0.0028697200498744605,-0.007466884251896064,0.0014215927059236108
1719786224.8071983,2035,1719786224,834841000,world,0.025968500958484242,-0.007086182614024494,0.05504821800395021,0.004866932164214684,0.0015154927667528797,-0.005095287030997392
1719786224.8175478,2036,1719786224,845005000,world,0.09356015006289908,0.22976914358263656,0.14176925797054762,-0.008586032925053593,-0.0034039095047200506,0.007086901361042849
1719786224.8278,2037,1719786224,854796000,world,-0.11041007038414818,-0.13617790721509593,0.01707961299723948,0.006108125891938884,0.017116611416380267,-0.0035953949755322
1719786224.827838,2038,1719786224,863818000,world,0.14742527273181594,0.47142999688443155,-0.013432963057724567,-0.010748336149334401,-0.0066135786732744554,-0.003407438930581805
1719786224.84739,2039,1719786224,876409000,world,-0.04039501209085472,-0.3687822813769337,0.03426338752082758,0.0067611582665855095,-0.0046448524351467195,-0.00036959264602808543
1719786224.8474114,2040,1719786224,884449000,world,-0.1363452395120035,-0.27904582733384586,-0.19138816181346607,0.00355655578798794,-0.003017097896290743,0.008719482303543169
1719786224.8666277,2041,1719786224,894860000,world,0.05508097434159254,0.23282551427028508,0.26072980853913963,-0.0018011401158049719,-0.00010344784833102607,-0.00890214630528787
1719786224.8772194,2042,1719786224,904900000,world,0.02701123253956439,0.012302947951514653,0.07644755044083906,-0.0024224517205378242,0.0017695974209940124,0.0035990389763349727
1719786224.8866146,2043,1719786224,914355000,world,-0.013452888287801557,0.11995938558939656,-0.11394799589253823,-0.0027840223997759807,0.010169325296543014,0.001659910830357219
1719786224.89672,2044,1719786224,925631000,world,-0.02035752929341328,0.005528966142698266,-0.10622982323377217,0.013149876417701725,-0.0014700025768033442,-0.005044029004123364
1719786224.9091473,2045,1719786224,934484000,world,0.02395374480546053,-0.2469301262753021,-0.1349000759445773,-0.011847696374916158,-0.005761544471694301,0.005659162335967012
1719786224.909486,2046,1719786224,944028000,world,-0.04140824626297501,-0.20399185645780804,0.11043829862222854,0.003614622980971416,-0.010844338241964362,0.0026382943736363556
1719786224.926641,2047,1719786224,954505000,world,0.030822532530727642,0.28034336315041486,0.1799242267896961,-0.00592522938822218,0.006685224969718217,-0.0051481194111358645
1719786224.9367363,2048,1719786224,964246000,world,-0.0372198739873042,0.27098189231411496,-0.028975732462299675,0.010304115598589491,0.01244805858195726,-0.0006994642889729849
1719786224.9465716,2049,1719786224,975779000,world,0.1727385537320103,-0.15807975646708883,0.17644691217399977,-0.011468055621567405,-0.0032602905762828763,-0.007106359213545381
1719786224.9566326,2050,1719786224,984927000,world,-0.12061383568351403,-0.22635524202341273,-0.2846468023989801,0.008454709128330731,-0.010867924230113513,0.01582437868842751
1719786224.966646,2051,1719786224,994866000,world,0.0010421644169866795,-0.0068294273392055516,-0.21815583449019682,-0.005650204025491097,-0.0056670591236051525,-0.009048934843071798
1719786224.976815,2052,1719786225,4560000,world,-0.14956813836786154,0.06530188550346594,0.2784292287202894,0.0024731451354302243,0.0112143531935008,0.0015256970664977627
1719786224.9865777,2053,1719786225,14514000,world,0.20207842748032334,0.267490789351843,0.06374177002638204,0.0017982662721272677,-0.000952574319390686,-0.004744285403696218
1719786224.9965863,2054,1719786225,25053000,world,0.06634462863530644,0.10788515016679767,-0.29032029112946445,0.0007626370943866926,0.014286365128403549,0.007575896486093761
1719786225.0067863,2055,1719786225,35352000,world,-0.21153633115833514,-0.18441875602404068,0.2014490318763551,-0.001596624531673526,-0.017874582140687968,-0.008233529529753883
1719786225.0167654,2056,1719786225,44272000,world,0.049100858503514644,-0.40220058358242383,0.10693845905851429,0.005684450276242758,0.0011942770169082585,0.011395330865832085
1719786225.0268743,2057,1719786225,54109000,world,-0.051270089573840494,0.16498125517294682,-0.26444123777696893,-0.0009198467806738634,0.0007965956303322349,-0.007775039958943305
1719786225.0369232,2058,1719786225,64662000,world,0.11768369196474282,-0.07828687989430705,0.3141104689757812,-0.008247898160325088,0.0016556625414205716,0.003350088265904602
1719786225.046628,2059,1719786225,75173000,world,-0.040907696039482744,0.2898735883394288,-0.08990113269574662,0.005327679247642184,0.0033101116582718916,-0.00915248587024383
1719786225.0566614,2060,1719786225,84548000,world,0.012279509209456307,0.08906386775420216,-0.21246693885729195,-0.006193244206596696,0.0004035538038199105,0.007864140945431097
1719786225.0665333,2061,1719786225,94277000,world,-0.05567921956384225,-0.046956130981268274,-0.022344373739879853,0.0029013480432843477,0.0010687641439723601,0.00386738492739786
1719786225.0771456,2062,1719786225,104395000,world,0.08693645387580773,-0.44087910354706494,0.412693043468082,0.005578083747689701,-0.005465009743890318,-0.004583173063892366
1719786225.0867984,2063,1719786225,115369000,world,-0.06511040531176349,0.08163640096370273,-0.2205773094507424,-0.0076083766135076345,-0.01034329951676312,-0.003268591753969841
1719786225.0970852,2064,1719786225,128875000,world,0.07571575470599612,0.4672969927432824,-0.13003210938361542,0.012149178752687366,0.023011473248121327,0.005505920488041454
1719786225.1067436,2065,1719786225,137474000,world,-0.07862398640590129,-0.0836008548033007,0.20638065846595444,-0.012217511311748499,-0.01358787692887844,-0.002173008064515217
1719786225.1170115,2066,1719786225,145227000,world,0.08042093858851018,-0.20100902314634794,-0.07297885427304251,0.003846255170484614,0.0025592456028661966,-0.006249732451999225
1719786225.1270943,2067,1719786225,154475000,world,0.0014344456777948267,-0.008642168836114905,-0.09768766573853283,-0.0018630621097705563,-0.00031816270017289236,0.0103247977369871
1719786225.137064,2068,1719786225,164413000,world,-0.1767708924482747,-0.2986557374695664,-0.04792209586212959,0.010139241098660285,-0.005027423091780056,-0.0006100773277313227
1719786225.1474564,2069,1719786225,175363000,world,0.17070766370252954,0.39065629455103945,0.14181201453355996,-0.011093713498779136,5.597720792177892e-05,-0.005305066475620089
1719786225.1574774,2070,1719786225,184434000,world,0.06635053121151202,0.11457576259088498,0.044124059721539766,0.0003257969996786729,0.014216706588469123,0.002084166000254875
1719786225.1671698,2071,1719786225,194953000,world,-0.016298016749516364,0.10182334630570722,-0.01386047892015796,0.0025824720118765155,-0.0053002219287793225,-3.5923066651204644e-05
1719786225.1766415,2072,1719786225,208850000,world,-0.0956095774373722,-0.20909806086599758,0.11808590062917235,-0.0005472437148590429,-0.007055545667418243,-0.0022745086148453593
1719786225.1866906,2073,1719786225,218729000,world,-0.10491604362616869,-0.2759903643956285,-0.25466528126905086,0.0019752415679269056,0.0032880672268661548,0.007364434188964982
1719786225.196581,2074,1719786225,226111000,world,0.11243319106402083,0.29796431933570844,-0.15126485585298388,-0.0031224342275385482,-0.002433250450067677,-0.009169908069581598
1719786225.2065525,2075,1719786225,234734000,world,0.23889097065410425,0.10561838134970358,0.4519616633566481,0.005699548582146726,0.008541682937997338,0.009581302504142675
1719786225.2166376,2076,1719786225,244846000,world,-0.4236622369102605,-0.19342231285524036,-0.07833293570680411,-0.00586912887033704,-0.008390779118475402,-0.014203350550302127
1719786225.226884,2077,1719786225,254463000,world,0.2452262930585647,0.054036459971040784,-0.300895834909054,0.0005998935125109694,0.006133599612224279,0.007138204696286306
1719786225.2269006,2078,1719786225,263911000,world,-0.01270785857876433,-0.05448420572484736,0.017745689680215282,-0.0011274275173188822,-0.01097855055251512,0.0075301047370232915
1719786225.2467406,2079,1719786225,276247000,world,-0.024559129903067856,-0.082165905812559,0.08744656469245049,0.0016728455695298214,0.004263711960318956,-0.007952214692330728
1719786225.257008,2080,1719786225,284370000,world,0.04039503468611372,0.3018021739609189,0.022357315430932,0.002845524956535788,0.005122945195702913,0.0031358809725340955
1719786225.2665808,2081,1719786225,294678000,world,-0.09054278724995868,0.05823973214580391,-0.017099178815649374,-0.004318191970578448,0.004111787025066635,-0.003800406578107355
1719786225.276931,2082,1719786225,304969000,world,0.005940153933181591,-0.24077677723832736,0.23427621884813954,-0.003025953898138141,-0.00426849148535811,0.004166525074694787
1719786225.2867017,2083,1719786225,314167000,world,0.1405180926372651,0.06982150490220107,-0.11323616138703141,0.00523425055772456,-0.008669608610761475,-0.00751227669628785
1719786225.2976778,2084,1719786225,325588000,world,-0.18618983794294053,-0.24929863427169963,-0.3451735202572581,-0.001991349613376664,-0.0004706548951213515,0.011779479867785906
1719786225.3069742,2085,1719786225,334407000,world,0.0773873173143258,-0.019453252340095872,0.269597603243521,0.0028160625865001564,-0.0006742633168367691,-0.007374090990796772
1719786225.3167315,2086,1719786225,344222000,world,-0.05417794167961176,0.5040588393301348,0.10111741047841294,0.0015517999075508563,0.015018995571443362,0.0028435581803305516
1719786225.3266666,2087,1719786225,354782000,world,0.11282081989527626,0.21466120837088098,-0.15274073964760548,-0.003928958469950913,-0.0029809363056801006,-0.0037027350212849417
1719786225.3365858,2088,1719786225,363988000,world,-0.10976199586565372,-0.6094817064505875,0.2902012609942717,0.006373018172849077,-0.006391370658630652,0.004596282114681704
1719786225.347126,2089,1719786225,376083000,world,0.030091830849343637,0.08029203155901499,-0.11294821164548052,-0.011374769874803856,-0.0011556630741121684,-0.0036180494406764887
1719786225.3567498,2090,1719786225,384735000,world,0.056318567196456115,-0.042255636889532155,-0.3011938019165106,0.012017307634735342,-0.0008042492776485053,0.005115608059957792
1719786225.3665714,2091,1719786225,394148000,world,-0.09451423499839962,0.00864451950244316,0.07009345394104471,-0.00818367044767644,0.002258178042275793,-0.003971568661910309
1719786225.3765938,2092,1719786225,404662000,world,0.14062174133577798,0.06161834013251877,0.4085186905086746,-0.00022704845931156674,-0.003408087893098756,-0.0021487142678294517
1719786225.3865883,2093,1719786225,414307000,world,-0.2555289472638833,-0.08959303904099158,-0.2167060552718536,0.010535058324170466,0.018955644038871,0.004412352543295356
1719786225.396699,2094,1719786225,424994000,world,0.13756468270731403,0.003071486520678235,-0.18996803917536997,-0.009772561179386288,-0.01307969749676175,-0.0031527592323066962
1719786225.406638,2095,1719786225,435234000,world,-0.024102325490993337,-0.16762027865491191,0.15163857449013163,0.0018172185879616473,-0.0025793163674519585,-0.0005256021122777186
1719786225.4167297,2096,1719786225,444083000,world,0.050470219057352494,0.25568247034035707,-0.13309080182710709,0.003105529962833922,-0.00194575289538978,0.004575319214170088
1719786225.4269192,2097,1719786225,454101000,world,0.10017267808137831,-0.014996305253145437,0.036546027070982756,-0.007449741037331555,-0.0035403441977640473,-0.005521904867268225
1719786225.4376857,2098,1719786225,468776000,world,-0.1313288350024422,0.10169616208699495,0.3028752860334549,0.01167073536680237,0.018181422598077448,-0.0026774298856989094
1719786225.4470327,2099,1719786225,478659000,world,0.0017741063818021985,-0.12838809702264697,-0.270126658530323,-0.012039973213230571,-0.010741453912391345,0.010320053828960143
1719786225.4572594,2100,1719786225,486610000,world,0.051065884214551716,-0.04716230427304069,-0.2483997921226555,0.004702174909229152,-0.003912295295727193,-0.006953492993797713
1719786225.4666479,2101,1719786225,494908000,world,-0.01964896635175961,-0.12777796577490008,0.2369852811492934,0.004986218949616662,0.00814950981064252,0.005891600066795295
1719786225.4765112,2102,1719786225,504339000,world,-0.00702677927399975,0.120397693617047,0.06719617801992372,0.0037028786874338565,-0.013127329984223017,-0.005021947470898215
1719786225.4865339,2103,1719786225,515422000,world,0.0004537677122939954,0.28564230917238476,0.012308421124263003,-0.010824107833122208,0.00859884775447535,0.0011839923026037468
1719786225.4966478,2104,1719786225,524839000,world,-0.04034929736107529,-0.04953169848054273,0.059005544590096104,-0.00898137275998352,0.0021300772871129963,-0.006900254814375582
1719786225.5066879,2105,1719786225,538171000,world,-0.006598820232461833,-0.4301490435687505,0.014037803053867925,0.011428230311176391,0.0013224912633575138,0.013467234485584121
1719786225.5169168,2106,1719786225,548867000,world,0.08584525496235784,0.05945704135701391,-0.34177938648044526,0.0025409951124600065,-0.008629526196413195,-0.01139172622151586
1719786225.5268843,2107,1719786225,556226000,world,-0.07037331179571282,0.13571961975822333,0.005792552051075983,-0.0038286878773252596,-0.0011131824772172712,0.007279857750188605
1719786225.5365765,2108,1719786225,565340000,world,0.05122845744054416,0.3060801634124921,0.29254759520036533,0.0028057306105490273,0.01005965440102996,-0.004307069116597176
1719786225.5470169,2109,1719786225,574892000,world,-0.024734090104949757,-0.12101365126193642,0.23876226108277,-0.0027486088499180977,0.00600521641126828,0.002673037529771105
1719786225.5569134,2110,1719786225,584620000,world,0.024576436681300606,-0.03791602829039675,-0.47656171434456995,0.005796618563871458,-0.00837800681971375,-0.004116952578628597
1719786225.5668716,2111,1719786225,594828000,world,0.01862948837416667,-0.2212575852422738,-0.09168880436838389,-0.012943254645450238,-0.015270521323048193,0.0028868368484264557
1719786225.5768259,2112,1719786225,604736000,world,-0.08343844481117912,-0.13444329294065582,0.5072978203571332,0.012204639615518726,0.019711440236708146,0.011144296914179596
1719786225.576861,2113,1719786225,613928000,world,-0.03019390891534357,0.4979284952733032,-0.12480738683429138,-0.006497805282074349,-0.012012986834610068,-0.015648980014155715
1719786225.5965924,2114,1719786225,624936000,world,0.15620407678884618,0.0877024786727354,0.03991981822965007,0.005365103140570024,0.012885802355181997,0.004469916089329821
1719786225.6066926,2115,1719786225,634583000,world,-0.0725633275111548,-0.23891663496922178,-0.042842009771726364,-0.004332890957606056,-0.0042039838569170734,-0.007014341418643945
1719786225.6165223,2116,1719786225,645467000,world,-0.10215696636173277,-0.3379930686531196,-0.33382399093673243,0.003261239718328161,-0.00854346535290462,0.008518002367027043
1719786225.6271582,2117,1719786225,654898000,world,0.13627328816490092,0.06637523732200279,0.012233711122189295,8.539664565667084e-05,0.006378032025719167,-0.00414860132531551
1719786225.6367896,2118,1719786225,664068000,world,0.07273158359133447,0.26964334505885645,0.3666070105554087,-0.0023833304423999547,0.0018982504896646794,0.009097036928009625
1719786225.6467319,2119,1719786225,676452000,world,-0.16719728257896804,0.17518794868776055,-0.028044182939501727,-0.0022660380458028907,-0.004430508065726464,-0.008144328685910468
1719786225.6568224,2120,1719786225,684322000,world,0.042567030931195404,-0.10140764489241505,0.011961086475997806,0.004295900634042404,0.011837036090043029,0.0014987842816538738
1719786225.6666145,2121,1719786225,694145000,world,-0.10815839221134382,-0.2831460093810634,-0.23321181372604194,-0.004399087729102979,-0.009991692247595762,0.0009388680121110175
1719786225.6767197,2122,1719786225,706051000,world,0.18503977638140157,0.0154246459449503,-0.06355042650535436,0.008177888509433134,-0.010641471467794868,-0.001803652144554109
1719786225.6871376,2123,1719786225,714311000,world,-0.0472782777105607,0.1240756897269435,0.060557445375197805,-0.007104183832472767,0.01168502942842908,0.007079744336022395
1719786225.6969712,2124,1719786225,726338000,world,0.0215898073285814,0.06179752737311972,-0.01683057588575121,-0.0029051763145845092,-0.00535922908486818,-0.008706503712124976
1719786225.706729,2125,1719786225,734671000,world,-0.09986483223922704,0.10029458713312067,0.34036991133329364,0.008688791111539725,0.008208737762656333,0.001062413851404694
1719786225.716557,2126,1719786225,744207000,world,0.07974180865399916,-0.1606479521054638,-0.206216843077478,-0.004192233141822428,0.0028132587276050993,0.0022629339371334333
1719786225.7267199,2127,1719786225,755479000,world,-0.03256329153877857,-0.11149284812272953,-0.15035844818905852,-0.003330333448075943,-0.007277973306063307,-0.00022195789463283833
1719786225.7372415,2128,1719786225,764285000,world,0.02300186635384449,-0.004385434932974164,0.08842722552276916,0.0066016717524940574,-0.0040794950049716176,0.002201666095794116
1719786225.7466505,2129,1719786225,775704000,world,0.014245076300767323,0.05476720900787768,0.2254243691557356,-0.004483220684267691,0.0028802739693293325,-0.00526829913297803
1719786225.7565632,2130,1719786225,784734000,world,-0.023934017652216255,0.033517741619970565,-0.1528949508422528,-0.002979351160927421,-0.0024280468558830104,0.00608050957526833
1719786225.767088,2131,1719786225,794283000,world,0.08259963008683258,0.4028585297866094,-0.15389045045610672,0.00606430539082387,0.012805588884792678,-0.007883302266549297
1719786225.7771523,2132,1719786225,804533000,world,-0.1140450845849017,-0.5382352764837783,0.07611507131383144,0.0005541838605068337,-0.00815475175793543,0.005772230597663464
1719786225.7867415,2133,1719786225,814477000,world,-0.014785497759461919,-0.1281410909359515,0.0888320436112644,-0.0025927367996480795,-0.005540632161302315,-0.0008613327709804064
1719786225.7966735,2134,1719786225,824815000,world,0.11544175510191934,0.4026416767133334,-0.05004880079650942,0.00674295665053231,0.008711044247490023,0.004149583987775299
1719786225.8067179,2135,1719786225,835292000,world,0.03992207181724439,-0.11860010020514622,0.015033533387887044,-0.015129536747075737,-0.012419513283047426,-0.006676701046803515
1719786225.8069758,2136,1719786225,844093000,world,-0.17092049812372778,0.1629343156928087,0.11951360567558078,0.009454828766431065,0.017799204047362644,0.002477376312371398
1719786225.8271143,2137,1719786225,854283000,world,0.059393341054203574,0.07230566960503282,-0.25989073270504814,-0.0014133368247728254,-0.0006498866375445471,-0.002470400447951678
1719786225.8271813,2138,1719786225,864918000,world,-0.0848593207170012,-0.5156551656049224,-0.09436984392485748,0.005494818495374052,-0.011723871447976694,0.0013203934997884571
1719786225.8465657,2139,1719786225,875095000,world,0.22559384093678858,0.08228310103497449,0.23354579338108472,-0.004529601006810325,0.0006039453962511619,0.004403129987694769
1719786225.8568065,2140,1719786225,884701000,world,-0.1471832223298719,0.3611862154495604,-0.29758768174042993,-0.0004958815557619474,0.001979722211334524,-0.0032725922403030925
1719786225.866905,2141,1719786225,894255000,world,-0.1443530020317496,0.09906943882809216,0.21770345104199507,-0.0007161333161258513,0.002314379926429712,-0.003329902842182733
1719786225.8773432,2142,1719786225,904608000,world,0.09053617834542393,-0.17995512090251964,0.45157334774642566,0.005283408995879784,0.008219176504031386,0.002444987415546414
1719786225.8870351,2143,1719786225,915418000,world,0.04785211480395901,-0.2237373923641428,-0.5592532354636859,-0.006337719963134237,-0.009459507755951755,0.0011170682443851713
1719786225.8965397,2144,1719786225,928597000,world,0.03391454461265653,-0.0012747389788181351,0.01854355618086112,0.006776248364839077,-0.004390747126673021,0.0032078645372653064
1719786225.906991,2145,1719786225,937567000,world,-0.020883005866778603,0.07514668200370167,0.38344462025885484,-0.0008117312988655113,0.004249639132451169,-0.00647985298280638
1719786225.9170094,2146,1719786225,946244000,world,-0.08042962310383928,0.04301543770957039,-0.15349194318059478,-0.008175300472749277,-0.0005083702621030081,0.005934738526931853
1719786225.9265792,2147,1719786225,955591000,world,0.13538343166974443,0.10048622174574362,-0.010591358300393594,0.002440460475715066,0.007318819898486994,-0.008702427667654786
1719786225.9365618,2148,1719786225,965303000,world,-0.05016374680089086,-0.12150677474398464,-0.23118029396973494,0.003641991048172628,0.0013240110569634309,0.0003669507835412493
1719786225.946663,2149,1719786225,974767000,world,0.03489973972037319,-0.08155103427665011,-0.0982001709881608,-0.00727284195332033,-0.016034699965934384,0.009086321645574236
1719786225.9570932,2150,1719786225,984562000,world,-0.03230702923406881,0.15306136458503872,0.2755756858455194,0.009931171111412666,0.005522719955619101,-0.0029163903408870426
1719786225.9667149,2151,1719786225,994907000,world,0.0019387495830969215,0.20490219176938496,0.05994339049575359,-0.010099533208664985,-0.0008680032421326618,-0.000711817004899124
1719786225.9766145,2152,1719786226,4961000,world,-0.05798217118879734,-0.10208890151686134,0.20156247574176778,0.0019966949317088635,-0.0001646526126449623,0.005463496233019423
1719786225.9868698,2153,1719786226,14017000,world,0.009617631318015185,0.12085202947043072,-0.07670930363079531,0.0007426547179388504,0.008766248104151686,-0.004320613590526061
1719786225.9970212,2154,1719786226,25152000,world,-0.024004403220700965,-0.24071472784159553,-0.3722646527598572,0.007349353666176568,-0.013854238906756784,-0.006867554232944946
1719786226.0075874,2155,1719786226,34649000,world,0.20076661111367855,-0.03394338116358142,-0.10443402275434055,-0.0023158515801977326,-0.0007643102701364666,0.012095640261215481
1719786226.017167,2156,1719786226,45032000,world,-0.1194756089706317,0.06581170209463139,0.32720891289722553,-0.0022676995262418255,0.011667011640471672,-0.007418859791300693
1719786226.0275788,2157,1719786226,54903000,world,-0.07206990805030955,-0.032990297202939445,-0.16391325212333774,0.0035754546747508945,-0.002234296437057546,-0.0028898081365268365
1719786226.0276575,2158,1719786226,63952000,world,0.11170055389086997,0.16498021142563601,0.2742263495414399,0.0032511145925750882,0.006988503884022105,0.0024160125442549943
1719786226.0466623,2159,1719786226,76480000,world,-0.042211472393027805,-0.4014093683535336,0.1997537935649607,-0.013262833892739743,-0.007944886748194184,-0.00027425666753447535
1719786226.0574894,2160,1719786226,84709000,world,-0.09258699090519684,0.25746990510278067,-0.5362467749855937,0.005317214000934764,-0.005295395331237098,0.0067001565217350645
1719786226.066589,2161,1719786226,93995000,world,0.15783355943987942,0.0029922234245916,-0.0975483941281774,0.002128492955649809,0.004259412735071074,-0.007564476914112291
1719786226.077371,2162,1719786226,105525000,world,-0.14725807810478386,-0.10008968464703116,0.305007999338025,0.0071571486428138,0.005874908753789589,-0.00041815005292271195
1719786226.0774605,2163,1719786226,114052000,world,-0.01615052327430533,0.05472992529176324,0.0029454273511864137,-0.017109412346078046,-0.006962578053646622,0.006562974934731408
1719786226.097184,2164,1719786226,124528000,world,0.1087187522541555,0.0915494714304188,0.12316193012146259,0.011142497627290951,0.015650780674542314,-0.003183129824110007
1719786226.1075041,2165,1719786226,134694000,world,0.037399975711949196,-0.25001101881194643,-0.023833192629163502,-0.007251236527665481,-0.02352732972656114,0.0006976168967135059
1719786226.1075766,2166,1719786226,144194000,world,-0.1000619148694426,0.05986005285452123,-0.0518255191106487,0.00783540163520188,0.0181348264282113,-0.001530951489037419
1719786226.126661,2167,1719786226,155536000,world,0.00818962041737592,0.3692395557819417,-0.32731967614496593,-0.0035649309141078706,-0.013210777677322146,0.0007183309859644267
1719786226.137459,2168,1719786226,164232000,world,0.16345745206702844,0.02901192923232543,0.16280412483971052,0.003601252028730836,0.009614738064467327,-0.0047265814681899205
1719786226.1467373,2169,1719786226,175281000,world,-0.09041182908120504,-0.3771295632470917,0.24965667435844496,-0.003008990961904359,-0.0005617396425276242,0.006122422563752062
1719786226.156559,2170,1719786226,184951000,world,-0.044373322931612336,-0.15269558121255855,-0.08225100386533013,0.001425992874205477,-0.0007215962152457709,0.0026188967099401556
1719786226.16666,2171,1719786226,194169000,world,0.0005326362018109876,0.046160019955276965,-0.23229090104243122,-0.007038990904960412,-0.008665192212140117,-0.0054847855350499625
1719786226.177114,2172,1719786226,205213000,world,-0.056654553310941935,0.24217935379322597,0.1586110838106003,0.010232667849522717,0.006616735250349277,0.0011984521126752238
1719786226.1870794,2173,1719786226,214349000,world,0.08889011856361151,0.18290149303323844,-0.0493044427271605,-0.009240608398546343,0.004666131381690066,-0.0009538652765134277
1719786226.1970534,2174,1719786226,225331000,world,-0.13638880890454175,-0.02974510389330831,-0.11098143001597727,0.013844793635015727,-0.0030009780421795377,0.0014584720897497599
1719786226.206959,2175,1719786226,235449000,world,0.19687781083188582,-0.09424607199992607,0.03803662034618238,-0.014589700810018938,-0.0032168293543435125,-0.005264519895604824
1719786226.216644,2176,1719786226,244200000,world,-0.06570843594122522,-0.4462020557816082,0.07249968493799885,0.008159831535615126,-0.008089135957620786,0.008036044971987994
1719786226.2267745,2177,1719786226,254816000,world,0.02922279917605408,0.2946174611873076,0.0843531580943524,-0.0006266941059453669,0.013936297998780602,-0.00582605607158799
1719786226.2388177,2178,1719786226,264339000,world,-0.06238357128651728,0.16681219408232195,-0.049550667631514944,-0.00021023318304737884,-0.0005722413230286004,0.0018377092377610872
1719786226.2471118,2179,1719786226,274629000,world,-0.005226454535822711,-0.1526875661905791,0.09684377876573169,-0.006950791200182357,-0.0029504723937598273,0.001706881046719197
1719786226.2574477,2180,1719786226,284625000,world,-0.09105814065435425,-0.07623268928780291,0.14110489409302485,0.012151893500279351,-0.0005583081943557652,-0.00043906023091241084
1719786226.2669997,2181,1719786226,294382000,world,0.03925150471761896,0.27036745180675226,-0.5513581171279203,-0.009221870213654905,-0.005594109107042894,-0.0017078507912129761
1719786226.276604,2182,1719786226,304421000,world,0.12018347485209802,-0.020357678363058795,0.12663662028566947,0.00820393138871757,0.011972142207476073,0.0016213103180983178
1719786226.286669,2183,1719786226,315509000,world,-0.061106077970940476,-0.2599024703009434,0.5377740481368742,-0.011683061749236672,-0.013821816461193915,0.0026517640819208985
1719786226.297459,2184,1719786226,324900000,world,0.10632237023688873,0.31540006997232695,-0.27658471078051416,0.007309469969088718,0.015368490777941952,-0.002696232430160671
1719786226.3068132,2185,1719786226,334571000,world,-0.04987419077284727,-0.11997213773540238,-0.17807184551216215,-0.005282853909649088,-0.017046605973725742,2.399956811492815e-05
1719786226.3169496,2186,1719786226,344433000,world,-0.1139992605247997,-0.22412197240528897,0.1181352915841094,0.008643918477590872,0.013908192778427357,-0.0035368798812799554
1719786226.3266215,2187,1719786226,354435000,world,0.06530388716896596,0.1117776129855308,-0.16115572681912882,-0.006492255670755756,-0.008604382232859394,0.008764396662358157
1719786226.336923,2188,1719786226,365038000,world,-0.0864006888079416,0.15774368510745873,0.10533166012127726,0.007687670065891264,-0.0012730009992709258,-0.01216538729969539
1719786226.346682,2189,1719786226,378386000,world,0.20578213803190692,-0.021289080402997484,0.3653650976231937,-0.009596141503841827,0.007861489095384202,0.005543985720657695
1719786226.362271,2190,1719786226,387720000,world,-0.14023688132080991,-0.031281241732461496,-0.20155360208023998,0.0041488695144414785,-0.0005892426547923429,0.000441772593717011
1719786226.3672178,2191,1719786226,396438000,world,0.005247395695739954,-0.22063683672302048,-0.29901267971477186,-0.0008091657660949524,-0.000825450499753328,0.0021509883740144387
1719786226.377365,2192,1719786226,405482000,world,0.035926184347445655,0.16079580612116118,0.007364437701606885,-0.003267260568161207,-0.004789149081688798,-0.003999150964960466
1719786226.377438,2193,1719786226,413919000,world,-0.08591597159046671,-0.2885579551104023,0.08770923280193577,0.0045911266161552155,0.0007435833869923735,0.0064984279941329845
1719786226.3975575,2194,1719786226,425065000,world,-0.017722273870646177,0.39139377947972065,0.15407680514972766,0.0005794046506877232,-0.0018896319018755412,-0.011350564332029462
1719786226.40652,2195,1719786226,434925000,world,0.02048800927134664,0.05036633647925726,0.047860631421370314,0.0017549082979892547,0.015499117820560258,0.009919000492906387
1719786226.416965,2196,1719786226,445072000,world,0.13145569988104455,-0.3101009194517168,-0.30429847055313264,-0.007145441253650772,-0.01563140217953573,-0.00348153147940559
1719786226.4280183,2197,1719786226,454888000,world,-0.12149909663250469,0.02941261301403486,0.31393405158564036,-0.004724628069343687,0.0044496875017807,-0.003752957011664351
1719786226.428116,2198,1719786226,464116000,world,-0.0039406340768266546,0.05049716465865828,-0.03017844234926015,0.015284139511078498,-0.00295107633029131,0.012606442221589596
1719786226.4472485,2199,1719786226,476436000,world,0.22547341146594846,0.3399677006132862,-0.09415656588129817,-0.008418707114985432,0.00846398208139238,-0.01014004022379984
1719786226.456624,2200,1719786226,484454000,world,-0.16421459998472443,-0.04556155448920407,-0.15251173248465033,0.0016242523934028483,-0.003352613237572403,-0.001996081467710106
1719786226.4667342,2201,1719786226,494024000,world,-0.03253223397781113,-0.2961301554571527,0.18916086265530208,0.005022464793961926,0.005626906770102669,0.006622157230353937
1719786226.4771392,2202,1719786226,505870000,world,-0.05429400261824924,-0.22105854564857808,0.10666219424665391,-0.013305204688989072,-0.017708882936208283,-0.003071455262661809
1719786226.4870763,2203,1719786226,514213000,world,0.07377655183216092,0.18910089043311373,-0.033202007653221344,0.009072957798903788,0.01118546932747188,0.00040596610789703837
1719786226.4967642,2204,1719786226,525778000,world,0.09525606083915505,0.26343848715804086,-0.1845478083484231,0.0006378775925267534,-0.0028695601969197467,-0.0010047659796996182
1719786226.507235,2205,1719786226,534113000,world,-0.09229702551127872,-0.002225596236193894,-0.14507945908459607,-0.00010780415251898935,0.001648670732505443,-0.00044919071207119224
1719786226.5073571,2206,1719786226,544154000,world,-0.09705225391787309,-0.25583984102794943,0.23151398525350642,-0.004305929060644722,0.000868505889628212,0.0061916337156622476
1719786226.5273767,2207,1719786226,555961000,world,0.15709983553602314,0.11430674075940672,0.2107874732329429,0.012200285931497093,0.001961548566935514,-0.008151572762315505
1719786226.5274122,2208,1719786226,564171000,world,0.020126516302454434,0.0692189679840638,-0.12409460118378846,-0.01809741853457264,-0.004681661387207294,0.004901876824664731
1719786226.5466306,2209,1719786226,574988000,world,-0.09201792537716358,-0.1635859382065341,-0.1083458965042694,0.010434900781219775,-0.009842674976484259,-0.002783723263571156
1719786226.55718,2210,1719786226,584929000,world,-0.06516349392526877,0.0839210667269441,-0.0650090594478403,-0.004471184363006626,0.021236865409350037,0.0022058923335336092
1719786226.5668607,2211,1719786226,594102000,world,0.07841397213326218,-0.009924253441262465,-0.046872856198920676,0.009874249155770436,-0.012139136709302374,-0.004818626021390361
1719786226.576696,2212,1719786226,605387000,world,0.05456498319400538,-0.10692560024283537,0.2051483767634421,-0.004693015814974527,0.0018728747443776045,0.007945476004622243
1719786226.5867774,2213,1719786226,614191000,world,-0.1457354403067157,0.043982325661495736,0.09940263222457668,-0.011692637202274984,-0.007372714364751835,-0.007322376154522815
1719786226.5966463,2214,1719786226,628249000,world,0.08669274417894002,0.18937331354829112,-0.24374131951332423,0.01438804348549785,0.013632291054615052,0.004602991944332822
1719786226.6065328,2215,1719786226,637753000,world,0.019932060570937438,0.2730470230161153,0.10534712721138595,-0.004811050630739356,-0.0046691696706594316,-0.0013662240551108858
1719786226.6172864,2216,1719786226,645509000,world,0.11452345329399094,-0.37266442049377346,0.08214503569137221,-0.009533241394635194,0.001168696873712591,0.0012750622424846593
1719786226.6266212,2217,1719786226,654222000,world,-0.18187544433168057,-0.14654720328799442,-0.09886902838374123,0.017077976635714615,-0.001259797974011977,-0.0021136290059453355
1719786226.637276,2218,1719786226,668742000,world,-0.023182798130072513,0.12730174412167727,-0.09538659063473842,-0.00070456121026358,-0.0021713133179564695,0.0008579709142118032
1719786226.6465926,2219,1719786226,676752000,world,0.08907314160033764,-0.044731688941812564,0.09977763337831735,-0.005906301935754185,0.0011646867578897421,0.003936853746177247
1719786226.6567957,2220,1719786226,685220000,world,0.03242302193839919,0.23770421813784637,-0.16869051715773242,-0.004080245908191829,0.004961633703291562,-0.009683820497050794
1719786226.6671536,2221,1719786226,694541000,world,0.10179574181812256,0.09362371244714396,-0.17369174464793025,0.010393042440978521,-0.008421355002434334,0.011791454609895885
1719786226.6769507,2222,1719786226,704480000,world,-0.20791091693617147,-0.41213403914275304,0.17711171143380833,-0.017945062696921598,0.01127169461339007,-0.008284902271689525
1719786226.6867197,2223,1719786226,715337000,world,0.03665159234778059,-0.0734624889120461,0.32777156460273016,0.010515162959792861,-0.024306094969597243,0.001801016163960128
1719786226.686742,2224,1719786226,724022000,world,0.013054688534630543,0.003329913966787501,0.024727801641866165,-0.0003241536992987344,0.010657904527561409,-0.003907636150105336
1719786226.706738,2225,1719786226,735019000,world,-0.07030873567792639,0.23740230801427842,-0.439064006038381,0.003164802415620482,0.008040254660753433,0.00489945532183436
1719786226.7167003,2226,1719786226,744477000,world,0.06927858333227732,-0.12672713740835562,0.27787279016699973,-0.0131760791708594,0.0068270394409360915,0.00357931451910999
1719786226.726875,2227,1719786226,754861000,world,0.020481380786918635,0.02878340237266741,-0.20103334072846257,0.012185547439588709,-0.006112170228709494,-0.0027206711359147066
1719786226.7368884,2228,1719786226,765031000,world,0.09268464134404297,0.24335411404230456,-0.07201715983617962,0.002700566927318553,-0.0017506372791553754,-0.004558940864816406
1719786226.7465167,2229,1719786226,774754000,world,-0.07317050781274759,-0.2604644973192016,0.29016377930901616,-0.015794528944494082,-0.011073282614714875,0.003537901220057685
1719786226.7567842,2230,1719786226,784836000,world,-0.12987308615652893,-0.02447818192585771,0.07804686034978969,0.01943404747450819,0.004103281277452221,-0.002818811261458501
1719786226.7665596,2231,1719786226,794729000,world,0.2857532833644427,0.2583136168055056,-0.31210661878333656,-0.006358661070095977,0.009601410198224938,0.00291013697849739
1719786226.7775853,2232,1719786226,805266000,world,-0.11980862813842919,-0.10828397664530698,0.15249474776796168,0.0020973751963936802,-0.004417857549069492,-0.0018439930466922093
1719786226.7776682,2233,1719786226,814022000,world,-0.08607689947925934,-0.011272273938711663,0.19076673628076746,0.0026091302857068877,0.0017770769850235292,0.0016803864688922476
1719786226.796566,2234,1719786226,824972000,world,0.00034749899402441997,0.18410041453975623,-0.15517842543166793,-0.007635466875551438,0.004379498560566986,-0.0011389697508961448
1719786226.8070517,2235,1719786226,834684000,world,-0.008358999465940542,-0.3034173048388489,-0.17458291033778384,-0.0014536524801743679,-0.007002669085635504,1.5939822717321056e-05
1719786226.8165636,2236,1719786226,844798000,world,0.05167020242335951,-0.0561381960140217,0.07026109705904338,-0.002182332459499967,0.0008457512340167853,0.0026111767821796936
1719786226.8267622,2237,1719786226,855341000,world,0.05950287023548384,0.09490979924198228,0.04494337979055185,0.003714546688262287,0.001606749656647,-0.004063324061775309
1719786226.8366005,2238,1719786226,868907000,world,-0.10729782868423854,0.38793348458021626,-0.044085031784268924,0.0021922384067761466,-0.003295748356711757,0.0029104993943037923
1719786226.846968,2239,1719786226,878407000,world,-0.008917302665167881,-0.46193277415618184,0.4069930186359483,-0.0013019019096308956,0.0036681883673923433,0.002049962579898801
1719786226.8568187,2240,1719786226,885808000,world,-0.09486222130483668,-0.21320086800225013,-0.08101639859009468,0.004714419790979952,-0.0009021479878637989,-0.0021471588993465045
1719786226.8667507,2241,1719786226,894906000,world,0.17089375195844525,0.27985646892325633,-0.44510497653083014,-0.010992745157753519,-0.006028383044516034,0.0008188368081665082
1719786226.8774693,2242,1719786226,905093000,world,-0.02554424944012368,0.4131756175485002,-0.16305993290000043,0.010224507623620843,0.006273217450743195,-0.0035986319607696437
1719786226.8865128,2243,1719786226,914090000,world,0.013378504708505545,-0.1854944225909705,0.2599233687533564,0.0004354923700521237,0.007072198627636416,0.0021172716208165596
1719786226.8965561,2244,1719786226,926035000,world,-0.15154971238384718,-0.3271715407460185,0.32493421548540624,-0.003181497829513842,-0.010655863265295357,0.003367613464993437
1719786226.9076662,2245,1719786226,934804000,world,0.10233123621805618,-0.04189510411700681,0.009559773992695586,-0.014062717330754126,-0.0023417188197058627,-0.00412062402436332
1719786226.907687,2246,1719786226,944086000,world,-0.03827494091446226,0.06039408437796823,-0.08493270251791474,0.01247516301699329,0.012815804393846055,0.0013292093976266927
1719786226.9270263,2247,1719786226,955965000,world,0.1046715186303615,0.15898455361984531,-0.2870446869318588,0.010978826585540773,-0.011503961604597,-0.0011117765248198465
1719786226.9364922,2248,1719786226,964378000,world,0.13820061089298008,0.41792239402260734,-0.08633799446405854,-0.015489049548698978,-0.004268936972588889,-0.0007434304203954645
1719786226.9465666,2249,1719786226,974799000,world,-0.12166742589858615,-0.28875926981530853,0.3172509670515411,0.007968059612015741,0.019922155694377094,-0.001502771325758021
1719786226.9568727,2250,1719786226,984914000,world,-0.19731772226805333,-0.3893773531937761,-0.07269505438362023,-0.004371068485979622,-0.013870194448921095,0.005760412664356493
1719786226.96692,2251,1719786226,994146000,world,0.09296915027157127,-0.059664165958928095,-0.0286161703091925,0.002308831820866187,0.0021958666601852583,-0.004632415683102102
1719786226.9765258,2252,1719786227,5466000,world,0.13576801604298083,0.27243109937069576,-0.16044619003757754,-0.001329572302135082,-0.0021555389634651616,0.009137935860419496
1719786226.9867437,2253,1719786227,14437000,world,-0.12042058350925089,0.09958227105366646,0.15946794782339957,0.003833617365092026,0.008461026057264795,-0.011214550385103562
1719786226.9971821,2254,1719786227,24599000,world,0.018940165458225522,0.1583910855829096,0.13040933950991818,-0.0022006347009770437,-0.007373669445492623,0.0011915191848312133
1719786227.0069602,2255,1719786227,35241000,world,0.033950683153705086,-0.2256007457601683,-0.08749616777770086,0.003474921706491001,0.005506459141342287,0.00205295299147733
1719786227.0170257,2256,1719786227,44166000,world,-0.08971719779538034,-0.20544598746896625,-0.013745214246518866,-0.010063250606147586,-0.009643763061257487,0.003198526302436332
1719786227.0275238,2257,1719786227,54501000,world,0.11351902612144471,0.20283360488759783,-0.07345906678390968,0.007782663569506387,-0.0006447471472038809,-0.00017153208085721785
1719786227.0369883,2258,1719786227,64288000,world,-0.011803501256402171,0.16403786077479054,-0.24413047209098648,-0.005392981481177051,0.007256709558669023,-0.0038600510900125918
1719786227.0465124,2259,1719786227,74697000,world,-0.028974518979651975,-0.08376747024696485,0.40090842980317065,0.005629635695484779,0.003935939057179679,-0.0014973700206387414
1719786227.0568957,2260,1719786227,84553000,world,-0.029177468618968305,-0.15970265246911808,0.0327925348722613,-0.0041282536299646995,-0.012837576254505845,0.004749585462935108
1719786227.066566,2261,1719786227,94472000,world,-0.04766912400366863,-0.024710665955662847,-0.2042885911651693,0.0018538362187769872,0.006177850596974875,-0.00011745251049225124
1719786227.0765038,2262,1719786227,104786000,world,0.09353712285165017,0.0393363598272245,0.04788719945580944,0.0006029287488729257,0.004289058151643631,0.0005371018168051788
1719786227.0870974,2263,1719786227,114572000,world,0.017258393585350973,0.21347613440525492,-0.01368003929691497,-0.003120276154466014,-0.0030270681916684627,-0.006007868231831805
1719786227.0968285,2264,1719786227,124303000,world,-0.15809006339129184,-0.14418804675564445,0.13544666075393508,0.0037745267370540535,0.0022160620677331,0.0024878180292821914
1719786227.1072173,2265,1719786227,134381000,world,0.19061753181670582,0.13943032149743573,-0.0588058120473689,-0.0017535595055083817,0.0009446441155366935,0.0006399225508026303
1719786227.117134,2266,1719786227,144497000,world,-0.05448555246978515,-0.007162133788263247,-0.15555229556901695,0.000626741766023256,-0.0007851743117872505,-0.0008190848223844188
1719786227.126861,2267,1719786227,155101000,world,-0.1018731395019401,-0.4915382427994608,0.0977081741640462,-0.003745336262629067,-0.006239163239404602,0.005008842828893728
1719786227.1367204,2268,1719786227,164251000,world,0.05852462874766928,0.2160510178472741,0.018196600233000293,-0.000998820973941692,-0.002223109367041169,0.0005170281453268182
1719786227.1467736,2269,1719786227,174394000,world,-0.045356773057392274,0.08150078987689824,0.08151633415581783,0.00978208312997924,0.010220397108201131,-0.009333854159825732
1719786227.1566577,2270,1719786227,184372000,world,0.04736242860570172,0.1065694170443443,-0.056684205590185055,-0.0058462015152720955,-0.00020496375632943502,0.006672221770955516
1719786227.166685,2271,1719786227,195000000,world,0.11065561357881393,0.17493067116403083,-0.18703412315884682,-0.0035504825940007013,-0.007320268641277024,-0.004758948967557184
1719786227.1765747,2272,1719786227,204769000,world,-0.004804673556790817,-0.08661809596688386,-0.26050883380507317,0.00997997882453422,0.006758563680082611,0.0036204088027906533
1719786227.186847,2273,1719786227,214241000,world,-0.17519648295660772,-0.5379809550887238,0.5795487216320172,-0.0050854131771257225,-0.012764023961471938,0.005568572571100542
1719786227.197116,2274,1719786227,224782000,world,0.08970221472726081,0.24072851696477215,0.0940304549704174,-0.005052592127386157,0.012904918713911251,-0.006391602233377188
1719786227.2068498,2275,1719786227,238459000,world,0.09455784581113846,0.509264511912022,-0.32651028391617043,0.005010103410606219,0.0019837293797147384,-0.0016582869999872034
1719786227.216978,2276,1719786227,248264000,world,-0.19867596215306094,-0.2523730901349275,0.00035363106443142556,-0.005228182417562288,-0.004902638554535062,0.0013389696499097694
1719786227.2273889,2277,1719786227,255702000,world,0.024583212243634023,-0.16654593789411365,0.12660388243990184,0.007712955732509872,-0.0023303382256825308,0.002531225676222163
1719786227.2276134,2278,1719786227,264022000,world,0.21179762311973604,0.05368362884672351,-0.1901690386579835,-0.0035879589828253255,0.007108163896261317,0.0005151231850758218
1719786227.246972,2279,1719786227,275874000,world,-0.17100784459600504,-0.22209973312925513,0.20893395082904886,-0.0038741732645761204,-0.016887246477079985,-0.006199341275900624
1719786227.2579691,2280,1719786227,284069000,world,0.056746395928897186,0.2740073154394729,0.1734484056109542,0.008010920238177847,0.014955878300568465,0.0015819265233636569
1719786227.2665353,2281,1719786227,294063000,world,0.04815432639748707,0.07352319397746498,-0.16817986815936825,-0.009195811058188053,-0.0014218419072370236,0.0033948027947266137
1719786227.2766964,2282,1719786227,305348000,world,-0.03896185690077658,0.12893710495287536,-0.06620929448558632,0.005976130669011256,0.007386406104734893,0.002877031201876123
1719786227.2773538,2283,1719786227,313978000,world,0.011128527255266363,-0.12317966578301309,-0.1115850651786654,-0.000690192280432713,-0.01413188381723218,-0.009958628071546282
1719786227.2972143,2284,1719786227,326399000,world,-0.1835592106447237,-0.6082541397156582,-0.0647787078927875,0.0007977833842883092,-0.004876461224871508,0.012057828776355242
1719786227.306558,2285,1719786227,334538000,world,0.05236066712654974,0.4586422723540373,0.10698627067734501,0.0062207860142148635,0.010596456564920302,-0.007564545863688287
1719786227.316807,2286,1719786227,344059000,world,0.1877135675965036,0.14906681566673186,0.2183510441292058,-0.010424757596395723,-0.0007526569755912263,0.001364213611732374
1719786227.3273776,2287,1719786227,355927000,world,-0.09178697605083386,0.014002258832412906,0.033778095605840885,0.002007819128656484,0.007881807904815264,-0.0024963252795806587
1719786227.3366458,2288,1719786227,368288000,world,0.026943609090501752,0.040982764071273436,-0.3147588465932105,-0.0030886997469489886,-0.008048049177428712,0.010669055423683006
1719786227.346501,2289,1719786227,378294000,world,0.0047560342553154555,-0.17946121628975575,-0.3637399042930034,0.0046910771434842315,-0.002886824711761053,-0.013468122534887675
1719786227.3567364,2290,1719786227,385829000,world,-0.09810649801877958,-0.25188817910359873,0.4410476262289853,-7.013050905516378e-05,0.0006887395916377206,0.011709711083479441
1719786227.366565,2291,1719786227,394711000,world,0.1277231878349383,0.0026730267288499476,0.29573273389121857,-0.001959724160522174,-0.0028402625985617263,-0.006523641772268487
1719786227.3774748,2292,1719786227,405717000,world,-0.09469604068890192,0.5048232659854435,-0.31248354768032005,0.00881623442958934,0.013668131195970714,-0.008001721518700173
1719786227.3871517,2293,1719786227,414084000,world,0.03091602086335854,-0.1082609168734372,0.1928585602231636,-0.007976693273067822,-0.009461877244169185,0.008103684155031755
1719786227.3966491,2294,1719786227,424485000,world,-0.08750174754545981,-0.2154122077868692,-0.0183085102553604,0.00047007288690251647,0.0031109585788306835,0.0031822044606788506
1719786227.406876,2295,1719786227,434790000,world,0.08691303457819544,-0.11927050688642638,-0.4122768415640299,0.0030176371796835836,-0.006787662838371429,-0.0004452290200439662
1719786227.4165905,2296,1719786227,444346000,world,0.01115858739186848,-0.046191143650009536,0.27075575659035733,-0.007423118079105606,-0.002940058028334694,-0.002505371182394513
1719786227.4266055,2297,1719786227,454666000,world,-0.04767656893278627,0.4037331394202148,0.357916505012712,0.005005952942155112,0.009468168154060073,-0.0006898966198442676
1719786227.43732,2298,1719786227,464748000,world,0.11545209772201304,0.3208648722496932,-0.3864409707393657,0.005067282498062114,0.008382786499409437,0.0018478113957203623
1719786227.4471939,2299,1719786227,474958000,world,0.06533391712082448,-0.2991145068631518,-0.08141087352392384,-0.010522592912236527,-0.006919698798248222,-0.009194582339429509
1719786227.457102,2300,1719786227,484606000,world,-0.33467365110340097,-0.8430218412724955,0.19878837353409784,0.0073397336535408865,-0.012449968191055682,0.012439890939971892
1719786227.4672556,2301,1719786227,494283000,world,0.22309083725247092,0.20878368647947454,-0.15681630394753787,-0.0020101910341300167,0.0013632989450720944,-0.0037697371267261435
1719786227.4769318,2302,1719786227,504926000,world,0.05655559021544576,0.653216337007656,0.011581788098569135,0.00032663302030497743,0.005642444732901398,0.00019596593946085203
1719786227.4867089,2303,1719786227,514719000,world,-0.1742157931250432,0.1932338769705666,0.2649396172896279,0.00647899284876818,0.009468943416025145,-0.0032232969762024163
1719786227.4968362,2304,1719786227,524437000,world,0.07024890485762825,-0.033158369758812256,-0.11008266956574753,-0.012740610286081063,0.004572263483925923,-0.0023365890751346125
1719786227.5067837,2305,1719786227,534308000,world,0.13368991730100532,-0.5198901326397554,-0.4627400451295838,0.007753851384167629,-0.021836847656240003,0.004321233729370256
1719786227.5167928,2306,1719786227,544331000,world,-0.1702691826599434,-0.41388399634190165,0.33744820121694996,-0.0005392339374960466,0.004554522694682148,0.0077067388377969285
1719786227.5269291,2307,1719786227,554885000,world,0.04274916374225057,0.3133613673167446,0.3238398168739498,-0.0020094787771069112,-0.0022230054402424394,-0.004014896546441829
1719786227.5367205,2308,1719786227,564881000,world,0.019777468316384272,0.46577609040809875,-0.13982035262372072,-0.0010434461232998217,0.00836473951788365,-0.006489676358821359
1719786227.5471272,2309,1719786227,574092000,world,0.1015413458516079,0.40845816903001264,-0.25870531716792877,0.001747327071585938,0.0012092170983195938,-0.001898864796249983
1719786227.55712,2310,1719786227,584415000,world,-0.01992803063455284,-0.3779894718136667,-0.12761569706282172,-0.002098920421393609,0.00671251503438408,0.001224616594530633
1719786227.5668652,2311,1719786227,594912000,world,-0.18814525644117452,-0.7643274363466901,0.1762413169262289,0.004469891795516523,-0.015400125820589567,0.007364505762614142
1719786227.576722,2312,1719786227,604880000,world,-0.017105086227431343,0.05209437523800986,0.19208753263555423,0.001835054993309746,-0.0027192907921633085,0.0029433805682110947
1719786227.5871696,2313,1719786227,614395000,world,0.12056604347332467,0.7425601410004923,-0.04149884521825742,-0.012626934724009926,0.009361595401813543,-0.008653487636992738
1719786227.5971584,2314,1719786227,624248000,world,0.07311016435807005,0.15729319772672667,0.31054178963263457,0.019614851125768096,0.013548834586524588,0.0007808301994781794
1719786227.6066291,2315,1719786227,638592000,world,-0.1326195403317243,-0.13974189532861558,-0.4200151192929047,-0.01626418981248068,-0.0015862654591156451,-0.004122720823962539
1719786227.6166332,2316,1719786227,647969000,world,0.003017947025618639,-0.6721461244696414,-0.43464804408588353,0.00861549332157875,-0.01601225209529678,0.008462738565900779
1719786227.627177,2317,1719786227,656037000,world,0.01247137243698404,-0.07570732454720286,0.3643641312969792,-0.0141427802920672,-0.011989522336066904,0.0013037417063524672
1719786227.6367803,2318,1719786227,664817000,world,0.06941176898589418,0.4228085711099894,0.15491159472719174,0.018972911504562297,0.014326424606707067,-0.0003671698164788012
1719786227.6466095,2319,1719786227,674720000,world,0.056985043173085614,0.5411420327749994,0.04460729782412853,-0.007504272732096065,0.008492982414840575,-0.006469871967873799
1719786227.657194,2320,1719786227,684263000,world,-0.20877158403376228,-0.5045887789889569,-0.005224884590537826,-0.009184635143502063,-0.002534088650345553,-0.0017604101764666497
1719786227.6669521,2321,1719786227,693965000,world,0.08368880185738448,-0.3191264289914564,0.1279928775493877,0.004631587580050258,0.0030533823894368507,0.004360048169453897
1719786227.67833,2322,1719786227,705741000,world,0.12826082092853852,0.3206038965664071,-0.38842007129696876,0.011518585532600583,-0.01276087498614515,0.003299386229063099
1719786227.6870313,2323,1719786227,714390000,world,-0.10105114878644628,-0.19225923909127474,-0.017120307601037332,-0.01145902406388958,-0.007952332980172037,-0.0017515606732912694
1719786227.6965547,2324,1719786227,725417000,world,0.05128221280958911,0.4324539191546961,0.2573457778826116,0.004613560560756126,0.014832876968052754,-0.0010543071295277544
1719786227.706733,2325,1719786227,734556000,world,0.0196898407223145,0.03292281873568115,-0.013266367386299827,-0.004462991604468716,0.009461446755253936,-0.0029447836071286536
1719786227.7169359,2326,1719786227,744262000,world,0.028707937245187054,-0.31569487564109266,0.050168929111860106,0.00712273888043957,-0.004296566129964289,-0.0003266821110690439
1719786227.726914,2327,1719786227,755782000,world,-0.11842594243027804,-0.1787867742231164,-0.08589039121653652,-0.007873837675421411,-0.023793744761527933,0.003356032425985557
1719786227.7269342,2328,1719786227,763992000,world,-0.029607820293264808,0.07873080142051236,-0.08045255400712659,0.010739571129686567,0.006502728363188412,0.003123701277333406
1719786227.7471313,2329,1719786227,774547000,world,0.10778641206687922,0.4008076061068344,0.0856612669455914,-0.007526011820895129,0.01229536239551089,0.0017322403435327653
1719786227.7570813,2330,1719786227,784426000,world,-0.0006416734699143944,0.09119261623835584,0.07995163457091836,0.004563942752793168,0.010635121035532881,-0.010905090980318853
1719786227.766788,2331,1719786227,794171000,world,-0.1863996104578547,-0.3653733389485936,-0.11394330390657181,-0.006717206137332407,-0.009728186921622712,0.007784891211589726
1719786227.7767096,2332,1719786227,805900000,world,0.023222767246977583,-0.20479584838195564,-0.10067252217943468,0.00610603807016906,-0.004487076704474578,-0.005616199300903703
1719786227.7869456,2333,1719786227,818374000,world,0.0841825790098838,-0.34134313025901974,0.052116922436840074,-0.004226253137738333,-0.002280401475048783,0.011243884898781068
1719786227.7966475,2334,1719786227,828397000,world,0.07707280490265589,0.5082907169784434,-0.1299207010926895,0.007424450481496783,0.0017680594320103225,-0.008702002343040005
1719786227.8070188,2335,1719786227,836049000,world,0.03804197735046699,0.26212491779809,0.39831341262619446,-0.015213440407993347,0.007447739250384656,-0.002146096448628193
1719786227.817074,2336,1719786227,844775000,world,-0.13831603955960503,-0.010353463208989666,-0.19261273375315024,0.009373596461856442,0.0015257669440278245,-0.0020905371754259125
1719786227.8269303,2337,1719786227,856012000,world,0.1201880644696729,-0.0057399066499819185,-0.08155954002303512,0.005173306527698884,-0.005630973703270855,-0.0015363353484905227
1719786227.8365536,2338,1719786227,864151000,world,-0.08152495746482913,-0.5118944853932383,0.008967127139158926,-0.0069386549525533745,-0.005645201500578968,0.0123173026869024
1719786227.8470747,2339,1719786227,874730000,world,-0.01393410294259212,0.03174903688396569,-0.03299251389338176,0.002427654578811305,-0.004393077851868733,-0.0011097415449866962
1719786227.857194,2340,1719786227,884659000,world,-0.060596862110351424,0.19548595860063855,0.17133429413535017,-0.005891386833987386,0.010955324202608311,-0.005004960221670746
1719786227.8668015,2341,1719786227,894630000,world,-0.010974150277398564,0.29935410506443105,0.13722473036048566,0.008566250032021014,0.008384072234927792,-0.002723870953252962
1719786227.877105,2342,1719786227,909206000,world,0.15569308608576193,-0.00807948367098632,-0.16793296995887275,-0.0071778231846888665,-0.008672706791990876,0.005192078565956297
1719786227.8868408,2343,1719786227,917198000,world,0.027539155196265597,-0.13296658591954724,-0.27824888416350113,0.005871135817915084,-0.008516583822934878,-0.004160487059796182
1719786227.89748,2344,1719786227,925866000,world,-0.18514745097508722,-0.26346477840943905,0.10272138968758782,-0.0025630797342807168,0.007841070192305628,0.008146129065229275
