Time,header.stamp.secs,header.stamp.nsecs,angular_velocity.x,angular_velocity.y,angular_velocity.z,linear_acceleration.x,linear_acceleration.y,linear_acceleration.z,Time,header.seq,header.stamp.secs,header.stamp.nsecs,header.frame_id,pose.position.x,pose.position.y,pose.position.z,pose.orientation.x,pose.orientation.y,pose.orientation.z,pose.orientation.w
1719786225,1719786224,546980066,-0.002130529,-0.001065264,0,0.225053809,0,9.825753516,1719786225,2010,1719786224,585231000,world,-2.074287479,-1.915745824,0.136575758,0.013136141,-0.010080004,-0.004671813,0.999851994
1719786225,1719786224,554447646,0,-0.003195793,0.001065264,0.225053809,0.004788379,9.830541895,1719786225,2011,1719786224,594781000,world,-2.07428846,-1.915730149,0.136555898,0.013130683,-0.010090281,-0.004700069,0.999851829
1719786225,1719786224,561972761,0,0.001065264,-0.003195793,0.215477051,0.004788379,9.820965137,1719786225,2012,1719786224,604701000,world,-2.074286967,-1.915744495,0.136567235,0.013158704,-0.010061769,-0.004688381,0.999851803
1719786225,1719786224,576962545,-0.001065264,-0.002130529,-0.001065264,0.215477051,-0.004788379,9.816176758,1719786225,2013,1719786224,614382000,world,-2.074297438,-1.915767541,0.136567654,0.013174051,-0.010110589,-0.004694946,0.999851078
1719786225,1719786224,584484620,-0.002130529,0.001065264,-0.003195793,0.225053809,0.004788379,9.820965137,1719786225,2014,1719786224,624734000,world,-2.074300552,-1.915789303,0.136569023,0.013133222,-0.010160556,-0.004655094,0.999851295
1719786225,1719786224,591972904,0,0.001065264,-0.002130529,0.229842188,0.014365137,9.825753516,1719786225,2015,1719786224,634924000,world,-2.074290585,-1.915760649,0.136570337,0.013141698,-0.010153329,-0.004678526,0.999851147
1719786225,1719786224,599478883,0.001065264,0.002130529,0.001065264,0.244207324,0.014365137,9.825753516,1719786225,2016,1719786224,644685000,world,-2.074297622,-1.915750421,0.136571935,0.013165881,-0.010139189,-0.004685417,0.999850941
1719786225,1719786224,607022143,-0.002130529,-0.003195793,-0.001065264,0.229842188,-0.004788379,9.820965137,1719786225,2017,1719786224,654441000,world,-2.074301485,-1.915765114,0.136570986,0.013193591,-0.010105162,-0.004692661,0.999850886
1719786225,1719786224,619555330,0.001065264,-0.004261058,-0.003195793,0.225053809,0.009576758,9.820965137,1719786225,2018,1719786224,664249000,world,-2.074299143,-1.915784299,0.136574942,0.013187226,-0.010117411,-0.004711681,0.999850756
1719786225,1719786224,622010486,0.001065264,-0.002130529,-0.001065264,0.225053809,0.014365137,9.830541895,1719786225,2019,1719786224,675173000,world,-2.074305696,-1.915836038,0.136595203,0.013140067,-0.010158496,-0.004687119,0.999851076
1719786225,1719786224,629445234,0,-0.001065264,0.001065264,0.229842188,0.014365137,9.835330273,1719786225,2020,1719786224,684436000,world,-2.07429945,-1.915841479,0.136599502,0.013149721,-0.010144705,-0.004692091,0.999851066
1719786225,1719786224,637044333,0,0,0.001065264,0.239418945,0.004788379,9.820965137,1719786225,2021,1719786224,694373000,world,-2.074305104,-1.915802189,0.136575293,0.013145326,-0.010137656,-0.004709912,0.999851111
1719786225,1719786224,644458345,0.001065264,-0.002130529,-0.001065264,0.239418945,0.004788379,9.816176758,1719786225,2022,1719786224,704376000,world,-2.074295402,-1.915772678,0.136565872,0.013177007,-0.010081116,-0.004692657,0.999851347
1719786225,1719786224,651968645,-0.003195793,-0.001065264,0,0.229842188,0.004788379,9.820965137,1719786225,2023,1719786224,715038000,world,-2.074291158,-1.915784231,0.136560241,0.013155897,-0.01007936,-0.004690446,0.999851653
1719786225,1719786224,659461857,0,0,-0.001065264,0.244207324,0.004788379,9.830541895,1719786225,2024,1719786224,725280000,world,-2.074298511,-1.915807992,0.136550073,0.013166632,-0.010101873,-0.004676578,0.99985135
1719786225,1719786224,666967836,-0.001065264,-0.001065264,-0.002130529,0.248995703,-0.004788379,9.820965137,1719786225,2025,1719786224,734380000,world,-2.074293648,-1.915814611,0.13656385,0.013134314,-0.010145566,-0.004657454,0.999851422
1719786225,1719786224,674429304,0.001065264,0.001065264,0.002130529,0.229842188,0,9.811388379,1719786225,2026,1719786224,744165000,world,-2.074281528,-1.915787405,0.136600049,0.013138043,-0.010109477,-0.004704345,0.999851519
1719786225,1719786224,681981011,-0.002130529,0,-0.001065264,0.234630566,0.009576758,9.816176758,1719786225,2027,1719786224,754362000,world,-2.074282812,-1.915755838,0.136591463,0.013119637,-0.010091055,-0.004701388,0.99985196
1719786225,1719786224,689466895,-0.001065264,-0.003195793,0,0.234630566,0.004788379,9.820965137,1719786225,2028,1719786224,764253000,world,-2.074281295,-1.915770927,0.136574996,0.01314314,-0.010091638,-0.004713279,0.99985159
1719786225,1719786224,696995178,0.002130529,0,-0.001065264,0.225053809,0,9.825753516,1719786225,2029,1719786224,774953000,world,-2.074282978,-1.915795895,0.13656975,0.013135792,-0.010134591,-0.004689741,0.999851363
1719786225,1719786224,704453542,0.001065264,0,-0.001065264,0.22026543,0.004788379,9.825753516,1719786225,2030,1719786224,784310000,world,-2.074277631,-1.915807389,0.136569232,0.013160507,-0.010147364,-0.004679651,0.999850955
1719786225,1719786224,711962818,0.001065264,-0.001065264,0,0.229842188,0.009576758,9.825753516,1719786225,2031,1719786224,794622000,world,-2.07428062,-1.915771471,0.136565,0.013156547,-0.010141113,-0.004705541,0.999850949
1719786225,1719786224,719451646,0.001065264,-0.002130529,-0.002130529,0.229842188,0.009576758,9.825753516,1719786225,2032,1719786224,808619000,world,-2.074281972,-1.915747472,0.136590165,0.013153147,-0.010092937,-0.004714654,0.999851439
1719786225,1719786224,727035129,-0.001065264,0,-0.001065264,0.22026543,0.014365137,9.820965137,1719786225,2033,1719786224,817991000,world,-2.074280251,-1.915758238,0.136607407,0.013142354,-0.010080177,-0.004711338,0.999851725
1719786225,1719786224,734593908,0.001065264,0,-0.003195793,0.215477051,0.004788379,9.816176758,1719786225,2034,1719786224,825762000,world,-2.074285379,-1.915772744,0.13658625,0.013146154,-0.010104585,-0.004700568,0.999851479
1719786225,1719786224,742010192,0,-0.004261058,-0.002130529,0.225053809,0.004788379,9.8066,1719786225,2035,1719786224,834841000,world,-2.074287911,-1.915787958,0.136570599,0.013173992,-0.010121638,-0.004715618,0.99985087
1719786225,1719786224,749585451,0.001065264,-0.002130529,0.004261058,0.229842188,0.009576758,9.816176758,1719786225,2036,1719786224,845005000,world,-2.074281086,-1.915780196,0.136569124,0.013159347,-0.010155445,-0.004694579,0.999850819
1719786225,1719786224,756988775,0.002130529,-0.001065264,-0.002130529,0.229842188,0.004788379,9.830541895,1719786225,2037,1719786224,854796000,world,-2.074285302,-1.915786051,0.136569357,0.013174656,-0.010103776,-0.004692953,0.999851148
1719786225,1719786224,764453251,-0.001065264,-0.001065264,-0.001065264,0.225053809,0.009576758,9.830541895,1719786225,2038,1719786224,863818000,world,-2.074274776,-1.915744763,0.136568247,0.013136215,-0.010085646,-0.004707387,0.999851769
1719786225,1719786224,771971007,-0.001065264,0,0,0.225053809,0.009576758,9.811388379,1719786225,2039,1719786224,876409000,world,-2.07426829,-1.915740353,0.136570563,0.013131665,-0.010090601,-0.004723704,0.999851702
1719786225,1719786224,779443899,0,-0.001065264,0.001065264,0.225053809,0.004788379,9.816176758,1719786225,2040,1719786224,884449000,world,-2.074275438,-1.915763848,0.136553741,0.013145408,-0.010109982,-0.004696411,0.999851454
1719786225,1719786224,787115509,-0.002130529,-0.001065264,-0.002130529,0.225053809,0.014365137,9.816176758,1719786225,2041,1719786224,894860000,world,-2.074277077,-1.91576406,0.136562991,0.013149698,-0.010130507,-0.004713525,0.999851109
1719786225,1719786224,794461138,0,-0.002130529,0,0.234630566,0.014365137,9.835330273,1719786225,2042,1719786224,904900000,world,-2.074276016,-1.915763043,0.136579886,0.013142018,-0.010142007,-0.004712639,0.999851098
1719786225,1719786224,801971245,-0.003195793,0.001065264,-0.002130529,0.234630566,0.014365137,9.825753516,1719786225,2043,1719786224,914355000,world,-2.0742763,-1.915750029,0.136585387,0.013120265,-0.010102624,-0.004703981,0.999851823
1719786225,1719786224,811992413,0.002130529,-0.001065264,0.002130529,0.229842188,0.009576758,9.820965137,1719786225,2044,1719786224,925631000,world,-2.07427862,-1.915736462,0.136580264,0.013164031,-0.010070614,-0.004721104,0.99985149
1719786225,1719786224,817079108,0,-0.002130529,-0.002130529,0.229842188,0.019153516,9.811388379,1719786225,2045,1719786224,934484000,world,-2.074278544,-1.915747588,0.136561652,0.01314899,-0.010067315,-0.004708962,0.999851778
1719786225,1719786224,824457472,-0.002130529,0,-0.003195793,0.225053809,0.023941895,9.811388379,1719786225,2046,1719786224,944028000,world,-2.074282609,-1.915779114,0.136554083,0.013152406,-0.010117972,-0.004683099,0.999851344
1719786225,1719786224,831984732,-0.001065264,-0.001065264,-0.002130529,0.22026543,0.014365137,9.830541895,1719786225,2047,1719786224,954505000,world,-2.074283592,-1.915782605,0.136564507,0.013125785,-0.010135683,-0.004683111,0.999851514
1719786225,1719786224,839429880,-0.002130529,-0.003195793,-0.001065264,0.229842188,0.014365137,9.825753516,1719786225,2048,1719786224,964246000,world,-2.074288297,-1.915758998,0.136572033,0.013150349,-0.010090968,-0.00468796,0.999851621
1719786225,1719786224,846958035,-0.001065264,0,-0.002130529,0.234630566,0.009576758,9.811388379,1719786225,2049,1719786224,975779000,world,-2.074275728,-1.915751198,0.136597203,0.013117301,-0.010063287,-0.004727547,0.999852148
1719786225,1719786224,854438255,0.002130529,0,-0.001065264,0.22026543,0.009576758,9.816176758,1719786225,2050,1719786224,984927000,world,-2.07427522,-1.915766035,0.136593909,0.013127577,-0.010088698,-0.004687734,0.999851944
1719786225,1719786224,861959978,0,-0.001065264,0,0.225053809,0.009576758,9.816176758,1719786225,2051,1719786224,994866000,world,-2.074274609,-1.915781554,0.1365688,0.013109279,-0.010143164,-0.004692502,0.999851611
1719786225,1719786224,869432358,0,-0.002130529,-0.002130529,0.215477051,0.004788379,9.816176758,1719786225,2052,1719786225,4560000,world,-2.074288954,-1.915790543,0.136571533,0.013103159,-0.010141409,-0.004690504,0.999851718
1719786225,1719786224,877005665,0,-0.001065264,0,0.22026543,0.004788379,9.811388379,1719786225,2053,1719786225,14514000,world,-2.074283091,-1.915772784,0.136580641,0.01310581,-0.010144684,-0.004712252,0.999851548
1719786225,1719786224,884444765,-0.001065264,0.001065264,-0.003195793,0.234630566,0.009576758,9.820965137,1719786225,2054,1719786225,25053000,world,-2.074270594,-1.915744235,0.136560717,0.013112318,-0.010076023,-0.004697101,0.999852228
1719786225,1719786224,891949945,0.002130529,0.003195793,0,0.234630566,0.004788379,9.816176758,1719786225,2055,1719786225,35352000,world,-2.07427925,-1.915734129,0.136560937,0.013110846,-0.0100973,-0.004721861,0.999851916
1719786225,1719786224,899426581,-0.001065264,-0.002130529,-0.006391587,0.234630566,0.004788379,9.820965137,1719786225,2056,1719786225,44272000,world,-2.074282996,-1.915764242,0.136571851,0.013138341,-0.010111722,-0.004690018,0.999851559
1719786225,1719786224,906975536,-0.001065264,-0.002130529,0,0.234630566,0.014365137,9.820965137,1719786225,2057,1719786225,54109000,world,-2.074291869,-1.915777857,0.136556322,0.013160824,-0.010122695,-0.00469705,0.99985112
1719786225,1719786224,914440076,-0.001065264,-0.002130529,-0.002130529,0.234630566,0.019153516,9.825753516,1719786225,2058,1719786225,64662000,world,-2.074288974,-1.915799301,0.136572203,0.013142205,-0.010125365,-0.004687026,0.999851385
1719786225,1719786224,921966439,0,-0.001065264,0.002130529,0.22026543,0.014365137,9.835330273,1719786225,2059,1719786225,75173000,world,-2.07429017,-1.915791758,0.136579094,0.01314968,-0.010111963,-0.004723244,0.999851251
1719786225,1719786224,929415043,0.002130529,-0.002130529,-0.002130529,0.22026543,0.009576758,9.825753516,1719786225,2060,1719786225,84548000,world,-2.074290138,-1.915775309,0.136564738,0.013126581,-0.010096176,-0.004719862,0.999851731
1719786225,1719786224,936979839,-0.002130529,-0.001065264,0,0.22026543,0.009576758,9.835330273,1719786225,2061,1719786225,94277000,world,-2.074295673,-1.915763554,0.136548148,0.013118156,-0.010074723,-0.004697361,0.999852163
1719786225,1719786224,944418874,0,-0.001065264,-0.001065264,0.229842188,0.004788379,9.725197559,1719786225,2062,1719786225,104395000,world,-2.074292515,-1.915795888,0.136572828,0.013137514,-0.010080762,-0.004697695,0.999851847
1719786225,1719786224,951978902,0.002130529,-0.002130529,-0.002130529,0.234630566,0.009576758,9.734774316,1719786225,2063,1719786225,115369000,world,-2.074295868,-1.915820059,0.136575449,0.013118913,-0.010138904,-0.004713307,0.99985143
1719786225,1719786224,959396690,-0.001065264,0,-0.001065264,0.229842188,0.009576758,9.787446484,1719786225,2064,1719786225,128875000,world,-2.07429165,-1.915797499,0.136565068,0.013160782,-0.010081355,-0.004703527,0.999851507
1719786225,1719786224,966951277,-0.001065264,-0.001065264,-0.004261058,0.225053809,0.009576758,9.820965137,1719786225,2065,1719786225,137474000,world,-2.074295294,-1.9157833,0.136575324,0.013141782,-0.010092165,-0.004703105,0.99985165
1719786225,1719786224,974452969,-0.001065264,-0.001065264,0,0.210688672,0.004788379,9.825753516,1719786225,2066,1719786225,145227000,world,-2.074290896,-1.915789201,0.136578283,0.013141635,-0.010090501,-0.00473429,0.999851522
1719786225,1719786224,981980644,-0.003195793,0,0,0.210688672,0.004788379,9.825753516,1719786225,2067,1719786225,154475000,world,-2.074286354,-1.915795967,0.136571472,0.013132702,-0.010089793,-0.004713743,0.999851743
1719786225,1719786224,989425056,0,-0.004261058,0,0.225053809,0,9.830541895,1719786225,2068,1719786225,164413000,world,-2.074299489,-1.915832598,0.13655987,0.013174545,-0.010114022,-0.004696427,0.99985103
1719786225,1719786224,996965372,-0.001065264,-0.001065264,-0.002130529,0.215477051,0,9.820965137,1719786225,2069,1719786225,175363000,world,-2.074295554,-1.915830164,0.136562449,0.013160657,-0.010138579,-0.004705073,0.999850923
1719786225,1719786225,4417048,-0.001065264,0,-0.001065264,0.22026543,0.004788379,9.816176758,1719786225,2070,1719786225,184434000,world,-2.074284984,-1.915816272,0.13656944,0.013148169,-0.010091919,-0.004704252,0.999851563
1719786225,1719786225,11978741,0.001065264,0,-0.002130529,0.225053809,0.004788379,9.816176758,1719786225,2071,1719786225,194953000,world,-2.074276043,-1.915792198,0.136575045,0.013148713,-0.010071697,-0.004703391,0.999851764
1719786225,1719786225,19399252,0,-0.002130529,-0.001065264,0.229842188,0,9.816176758,1719786225,2072,1719786225,208850000,world,-2.074276663,-1.915789033,0.136592459,0.013146573,-0.01008691,-0.004713409,0.999851592
1719786225,1719786225,26957266,0.001065264,-0.003195793,-0.001065264,0.234630566,0,9.816176758,1719786225,2073,1719786225,218729000,world,-2.074287775,-1.915813468,0.136584406,0.013154601,-0.010085155,-0.004686927,0.999851628
1719786225,1719786225,34423088,-0.001065264,-0.002130529,0.001065264,0.225053809,0.004788379,9.8066,1719786225,2074,1719786225,226111000,world,-2.074287644,-1.915808106,0.136561227,0.013146614,-0.010096239,-0.004705971,0.999851532
1719786225,1719786225,41960653,0,0.001065264,-0.001065264,0.229842188,0.004788379,9.8066,1719786225,2075,1719786225,234734000,world,-2.074263623,-1.915792182,0.136583244,0.0131674,-0.010063856,-0.004677965,0.999851717
1719786225,1719786225,49403179,-0.001065264,-0.001065264,0,0.215477051,0.009576758,9.811388379,1719786225,2076,1719786225,244846000,world,-2.074281969,-1.915795601,0.136597427,0.013158324,-0.010074491,-0.004720119,0.999851531
1719786225,1719786225,56958025,-0.002130529,-0.002130529,-0.001065264,0.225053809,0.004788379,9.801811621,1719786225,2077,1719786225,254463000,world,-2.074275792,-1.915793616,0.136581521,0.01315246,-0.01005398,-0.004727021,0.999851782
1719786225,1719786225,64416103,0,-0.001065264,-0.002130529,0.239418945,0.009576758,9.801811621,1719786225,2078,1719786225,263911000,world,-2.074270886,-1.915797079,0.13656739,0.0131416,-0.010087884,-0.0046955,0.999851732
1719786225,1719786225,71949925,-0.002130529,-0.001065264,-0.003195793,0.22026543,0,9.816176758,1719786225,2079,1719786225,276247000,world,-2.074268436,-1.915808759,0.136562003,0.013138601,-0.010100957,-0.004704099,0.999851599
1719786225,1719786225,79423843,0.001065264,-0.001065264,0,0.215477051,0,9.816176758,1719786225,2080,1719786225,284370000,world,-2.074261946,-1.915790259,0.136558852,0.013149865,-0.010088146,-0.004697502,0.999851611
1719786225,1719786225,86962625,-0.002130529,-0.002130529,-0.002130529,0.225053809,0.009576758,9.811388379,1719786225,2081,1719786225,294678000,world,-2.074264511,-1.915765934,0.136553991,0.013139254,-0.010055129,-0.004709957,0.999852024
1719786225,1719786225,94434943,0.001065264,0,0,0.225053809,0.009576758,9.811388379,1719786225,2082,1719786225,304969000,world,-2.074266482,-1.915765688,0.136572558,0.013113826,-0.010043251,-0.00470115,0.999852519
1719786225,1719786225,101976668,0.001065264,-0.001065264,-0.002130529,0.225053809,0.009576758,9.825753516,1719786225,2083,1719786225,314167000,world,-2.0742544,-1.915758459,0.136579801,0.01311439,-0.010075083,-0.004729593,0.999852057
1719786225,1719786225,109387867,-0.003195793,-0.003195793,-0.003195793,0.22026543,0.014365137,9.825753516,1719786225,2084,1719786225,325588000,world,-2.074260938,-1.91577616,0.136552526,0.013105605,-0.010108544,-0.004699017,0.999851979
1719786225,1719786225,117018456,-0.001065264,-0.001065264,-0.001065264,0.225053809,0.009576758,9.825753516,1719786225,2085,1719786225,334407000,world,-2.074259737,-1.915795807,0.136552212,0.01311054,-0.010145794,-0.004705403,0.999851507
1719786225,1719786225,124400950,0,-0.003195793,0.001065264,0.225053809,0.004788379,9.820965137,1719786225,2086,1719786225,344222000,world,-2.074263954,-1.915765047,0.136562009,0.013123023,-0.010107736,-0.004698639,0.99985176
1719786225,1719786225,131963284,0.001065264,-0.002130529,-0.002130529,0.225053809,0.004788379,9.820965137,1719786225,2087,1719786225,354782000,world,-2.074256889,-1.915712822,0.136556532,0.013115747,-0.010084916,-0.004709992,0.999852033
1719786225,1719786225,139415698,0,-0.002130529,0,0.225053809,0,9.816176758,1719786225,2088,1719786225,363988000,world,-2.0742608,-1.915721544,0.136580075,0.013140714,-0.010093596,-0.004698268,0.999851673
1719786225,1719786225,146971440,-0.002130529,-0.001065264,-0.001065264,0.229842188,0.004788379,9.820965137,1719786225,2089,1719786225,376083000,world,-2.074261702,-1.915722238,0.136592324,0.01310866,-0.010108557,-0.004703981,0.999851915
1719786225,1719786225,154408910,-0.002130529,-0.004261058,-0.001065264,0.22026543,0,9.816176758,1719786225,2090,1719786225,384735000,world,-2.074256971,-1.915727157,0.136574453,0.013136962,-0.010126919,-0.004684675,0.999851449
1719786225,1719786225,161955275,-0.001065264,0,-0.002130529,0.215477051,0.004788379,9.816176758,1719786225,2091,1719786225,394148000,world,-2.074261693,-1.915731211,0.136563591,0.013124097,-0.010134444,-0.004684958,0.99985154
1719786225,1719786225,169382890,-0.002130529,-0.001065264,-0.001065264,0.22026543,0,9.8066,1719786225,2092,1719786225,404662000,world,-2.074252352,-1.915729104,0.136593581,0.013110068,-0.010159152,-0.004695747,0.999851423
1719786225,1719786225,176965351,0.001065264,-0.001065264,-0.002130529,0.225053809,0.004788379,9.8066,1719786225,2093,1719786225,414307000,world,-2.074268564,-1.915735956,0.136601901,0.013148483,-0.010088559,-0.00468626,0.999851678
1719786225,1719786225,184382245,-0.001065264,0,-0.002130529,0.229842188,0.004788379,9.801811621,1719786225,2094,1719786225,424994000,world,-2.07427102,-1.915742501,0.136591224,0.013138189,-0.01008379,-0.004691187,0.999851838
1719786225,1719786225,191963203,0,0,-0.003195793,0.234630566,0.004788379,9.811388379,1719786225,2095,1719786225,435234000,world,-2.074275885,-1.915765807,0.136595711,0.013137014,-0.010091908,-0.004698662,0.999851736
1719786225,1719786225,199386305,0.002130529,-0.002130529,-0.001065264,0.229842188,0.009576758,9.820965137,1719786225,2096,1719786225,444083000,world,-2.074275704,-1.915763546,0.136586888,0.013151641,-0.010109378,-0.004683294,0.99985144
1719786225,1719786225,206913311,-0.002130529,-0.001065264,0.001065264,0.239418945,0.004788379,9.820965137,1719786225,2097,1719786225,454101000,world,-2.074265506,-1.915762784,0.13658172,0.013128828,-0.010145085,-0.004694921,0.999851323
1719786225,1719786225,214384093,0.001065264,-0.002130529,-0.002130529,0.229842188,0.004788379,9.8066,1719786225,2098,1719786225,468776000,world,-2.07426844,-1.915751853,0.13660684,0.013163796,-0.010089799,-0.004721725,0.999851297
1719786225,1719786225,221911291,0.001065264,0,-0.001065264,0.229842188,0.019153516,9.811388379,1719786225,2099,1719786225,478659000,world,-2.074271197,-1.91575376,0.136604947,0.013139349,-0.010087821,-0.004695626,0.999851761
1719786225,1719786225,229364025,0,-0.001065264,-0.001065264,0.234630566,0.009576758,9.820965137,1719786225,2100,1719786225,486610000,world,-2.074268848,-1.915760384,0.136578214,0.01313815,-0.010105748,-0.004704269,0.999851555
1719786225,1719786225,236900567,0,-0.001065264,0,0.229842188,0.004788379,9.820965137,1719786225,2101,1719786225,494908000,world,-2.074268463,-1.915779785,0.13657518,0.013161982,-0.010082428,-0.004684248,0.999851571
1719786225,1719786225,244379765,0,-0.002130529,0,0.225053809,0.009576758,9.816176758,1719786225,2102,1719786225,504339000,world,-2.074268781,-1.915787147,0.136578865,0.013204378,-0.01012498,-0.004688652,0.999850562
1719786225,1719786225,251885650,0.001065264,-0.001065264,0,0.215477051,0.004788379,9.830541895,1719786225,2103,1719786225,515422000,world,-2.074269053,-1.915765945,0.136583781,0.01319252,-0.010124721,-0.004687154,0.999850728
1719786225,1719786225,259367312,0.001065264,-0.001065264,-0.001065264,0.215477051,0.009576758,9.835330273,1719786225,2104,1719786225,524839000,world,-2.074273361,-1.915749695,0.136594598,0.013135363,-0.010114476,-0.004719837,0.99985143
1719786225,1719786225,266913102,-0.002130529,0,-0.003195793,0.215477051,0.014365137,9.830541895,1719786226,2105,1719786225,538171000,world,-2.074278328,-1.915776461,0.136606819,0.013135987,-0.010096463,-0.004685858,0.999851764
1719786225,1719786225,274373324,-0.002130529,-0.003195793,0,0.215477051,0.014365137,9.830541895,1719786226,2106,1719786225,548867000,world,-2.074274711,-1.915797281,0.136584861,0.013148939,-0.010122282,-0.00470839,0.999851227
1719786225,1719786225,281875882,-0.002130529,-0.002130529,0,0.22026543,0.009576758,9.835330273,1719786226,2107,1719786225,556226000,world,-2.074278132,-1.915804529,0.136563483,0.013143145,-0.010153278,-0.004694261,0.999851055
1719786225,1719786225,289367912,0.001065264,0,-0.003195793,0.22026543,0.009576758,9.830541895,1719786226,2108,1719786225,565340000,world,-2.074276429,-1.915781168,0.136571359,0.013150925,-0.0101342,-0.004702468,0.999851108
1719786225,1719786225,296946021,-0.002130529,0.001065264,-0.002130529,0.225053809,0.009576758,9.811388379,1719786226,2109,1719786225,574892000,world,-2.0742772,-1.91576991,0.136603112,0.013144956,-0.010084991,-0.004697568,0.999851707
1719786225,1719786225,304398852,0.002130529,-0.001065264,-0.002130529,0.239418945,0.009576758,9.811388379,1719786226,2110,1719786225,584620000,world,-2.074275513,-1.915762442,0.136587209,0.013167956,-0.010077799,-0.004712988,0.999851404
1719786225,1719786225,311880738,0,0,0.001065264,0.239418945,0,9.8066,1719786226,2111,1719786225,594828000,world,-2.074271963,-1.915777101,0.136562136,0.013126756,-0.010147066,-0.004712323,0.999851249
1719786225,1719786225,319362911,0,-0.003195793,-0.001065264,0.229842188,0,9.811388379,1719786226,2112,1719786225,604736000,world,-2.074276757,-1.915805204,0.136587794,0.01314667,-0.01011677,-0.004657864,0.999851549
1719786225,1719786225,326873757,0.001065264,-0.001065264,-0.005326322,0.239418945,0.004788379,9.8066,1719786226,2113,1719786225,613928000,world,-2.074284571,-1.915783514,0.13660097,0.013133582,-0.010147708,-0.004680521,0.999851302
1719786225,1719786225,334372635,-0.001065264,0.002130529,-0.002130529,0.234630566,0,9.797023242,1719786226,2114,1719786225,624936000,world,-2.074276764,-1.915753054,0.136618139,0.013147238,-0.010113805,-0.004681952,0.999851459
1719786225,1719786225,341901945,0.001065264,0,-0.001065264,0.239418945,0.009576758,9.811388379,1719786226,2115,1719786225,634583000,world,-2.074276213,-1.915746485,0.136631024,0.013138977,-0.010101482,-0.004717955,0.999851523
1719786225,1719786225,349342679,-0.001065264,-0.001065264,-0.002130529,0.253784082,0.014365137,9.811388379,1719786226,2116,1719786225,645467000,world,-2.074285878,-1.915773716,0.136610526,0.013147655,-0.010131233,-0.004710977,0.999851141
1719786225,1719786225,356998388,-0.001065264,-0.001065264,0,0.248995703,0.004788379,9.830541895,1719786226,2117,1719786225,654898000,world,-2.074281916,-1.915794309,0.136591251,0.013156399,-0.010129369,-0.004725163,0.999850978
1719786225,1719786225,364393715,-0.003195793,-0.001065264,-0.002130529,0.244207324,0,9.835330273,1719786226,2118,1719786225,664068000,world,-2.07427068,-1.915787938,0.136608637,0.013153644,-0.010117473,-0.004693875,0.999851282
1719786225,1719786225,371856177,-0.002130529,-0.002130529,-0.003195793,0.244207324,0.004788379,9.825753516,1719786226,2119,1719786225,676452000,world,-2.074276165,-1.915764048,0.136623219,0.013139251,-0.010128314,-0.004702896,0.999851319
1719786225,1719786225,379366415,0,-0.001065264,-0.003195793,0.239418945,0.004788379,9.830541895,1719786226,2120,1719786225,684322000,world,-2.074277392,-1.915750299,0.136638997,0.013146131,-0.010079779,-0.004705421,0.999851707
1719786225,1719786225,386866540,0.001065264,-0.001065264,-0.001065264,0.22026543,0.004788379,9.825753516,1719786226,2121,1719786225,694145000,world,-2.074289436,-1.915764865,0.136631454,0.013131301,-0.010081238,-0.004702376,0.999851902
1719786225,1719786225,394360650,0,-0.002130529,0.002130529,0.225053809,0.009576758,9.816176758,1719786226,2122,1719786225,706051000,world,-2.074282975,-1.915777888,0.136617555,0.013157513,-0.010135822,-0.004708059,0.999850978
1719786225,1719786225,404356189,-0.001065264,-0.001065264,-0.001065264,0.215477051,0.004788379,9.820965137,1719786226,2123,1719786225,714311000,world,-2.074281242,-1.915778503,0.136609713,0.013148293,-0.010131691,-0.004678756,0.999851279
1719786225,1719786225,409343270,0,-0.001065264,0,0.225053809,0.004788379,9.820965137,1719786226,2124,1719786225,726338000,world,-2.074277351,-1.915772939,0.136600187,0.013124232,-0.010154992,-0.004692479,0.999851295
1719786225,1719786225,416891876,0,0,-0.003195793,0.215477051,0.009576758,9.811388379,1719786226,2125,1719786225,734671000,world,-2.074283445,-1.915757345,0.136624698,0.013143469,-0.010136981,-0.004701873,0.999851181
1719786225,1719786225,424368834,0,-0.001065264,0,0.234630566,0.004788379,9.801811621,1719786226,2126,1719786225,744207000,world,-2.074281566,-1.915757816,0.136628588,0.013141795,-0.010104856,-0.004699927,0.999851537
1719786225,1719786225,431865440,0.002130529,-0.001065264,0,0.229842188,-0.004788379,9.811388379,1719786226,2127,1719786225,755479000,world,-2.074282943,-1.915769437,0.136617442,0.013123633,-0.010109208,-0.004698445,0.999851738
1719786225,1719786225,439354238,-0.001065264,-0.002130529,-0.001065264,0.210688672,0.009576758,9.816176758,1719786226,2128,1719786225,764285000,world,-2.07428202,-1.915781496,0.136615138,0.013138681,-0.010133654,-0.004686022,0.999851352
1719786225,1719786225,446859580,-0.001065264,-0.001065264,-0.001065264,0.215477051,0.019153516,9.816176758,1719786226,2129,1719786225,775704000,world,-2.074279672,-1.915788078,0.136635377,0.013130982,-0.010144152,-0.004699898,0.999851281
1719786225,1719786225,454383225,-0.001065264,0,0.001065264,0.210688672,0.004788379,9.816176758,1719786226,2130,1719786225,784734000,world,-2.074279718,-1.915791308,0.136640327,0.013108754,-0.010166461,-0.004683066,0.999851425
1719786225,1719786225,461860087,0,0,-0.002130529,0.215477051,0.009576758,9.816176758,1719786226,2131,1719786225,794283000,world,-2.074271503,-1.915754253,0.136629887,0.013116146,-0.010125126,-0.004706793,0.999851636
1719786225,1719786225,469355445,-0.003195793,-0.002130529,0,0.225053809,0.004788379,9.801811621,1719786226,2132,1719786225,804533000,world,-2.074274693,-1.915771021,0.136627059,0.013126793,-0.010124167,-0.004701156,0.999851533
1719786225,1719786225,476930259,-0.001065264,0.002130529,-0.006391587,0.229842188,-0.009576758,9.801811621,1719786226,2133,1719786225,814477000,world,-2.074279362,-1.915800603,0.136633114,0.013124565,-0.010151024,-0.00469933,0.999851298
1719786225,1719786225,484349521,-0.001065264,-0.001065264,0.001065264,0.225053809,-0.004788379,9.816176758,1719786226,2134,1719786225,824815000,world,-2.074272487,-1.915789921,0.136634165,0.013156052,-0.010133902,-0.004677675,0.99985116
1719786225,1719786225,491857583,0,0.001065264,-0.001065264,0.229842188,-0.004788379,9.811388379,1719786226,2135,1719786225,835292000,world,-2.074261619,-1.915791099,0.136636718,0.013111852,-0.010179658,-0.00468782,0.999851228
1719786225,1719786225,499339085,-0.002130529,-0.001065264,0,0.229842188,-0.009576758,9.816176758,1719786226,2136,1719786225,844093000,world,-2.074267844,-1.915775983,0.136651223,0.013114626,-0.010136046,-0.00468723,0.999851638
1719786226,1719786225,506854699,0,0.001065264,0,0.239418945,0.004788379,9.816176758,1719786226,2137,1719786225,854283000,world,-2.074268129,-1.915753637,0.136639739,0.013110226,-0.010095878,-0.004698876,0.999852047
1719786226,1719786225,514347337,-0.002130529,0,-0.002130529,0.229842188,0.004788379,9.825753516,1719786226,2138,1719786225,864918000,world,-2.0742769,-1.915782857,0.136618818,0.013133638,-0.010114105,-0.004703427,0.999851534
1719786226,1719786225,521861638,0,-0.001065264,0,0.244207324,0.009576758,9.830541895,1719786226,2139,1719786225,875095000,world,-2.074263111,-1.915803848,0.136621251,0.013134614,-0.01012913,-0.004685777,0.999851452
1719786226,1719786225,529327012,-0.001065264,0.001065264,-0.002130529,0.225053809,0.004788379,9.816176758,1719786226,2140,1719786225,884701000,world,-2.074264041,-1.915788721,0.136593926,0.013132899,-0.010134484,-0.004684591,0.999851426
1719786226,1719786225,537029409,-0.001065264,-0.001065264,0,0.229842188,0.019153516,9.811388379,1719786226,2141,1719786225,894255000,world,-2.074279406,-1.915763686,0.136588371,0.013127381,-0.010128504,-0.004700169,0.999851486
1719786226,1719786225,544344544,-0.002130529,0,-0.002130529,0.234630566,0.019153516,9.811388379,1719786226,2142,1719786225,904608000,world,-2.074285718,-1.915756648,0.136627974,0.013148206,-0.010081148,-0.004704331,0.999851671
1719786226,1719786225,551846174,-0.001065264,-0.002130529,-0.002130529,0.229842188,0.009576758,9.825753516,1719786226,2143,1719786225,915418000,world,-2.074287244,-1.915771982,0.136611651,0.013137626,-0.010081159,-0.004701969,0.999851821
1719786226,1719786225,559330908,0,0.001065264,-0.002130529,0.22026543,0,9.825753516,1719786226,2144,1719786225,928597000,world,-2.074285379,-1.915787445,0.136597182,0.013161187,-0.010102749,-0.004683623,0.99985138
1719786226,1719786225,566851642,0,0,-0.003195793,0.22026543,0.004788379,9.820965137,1719786226,2145,1719786225,937567000,world,-2.074285603,-1.915795393,0.136621058,0.013180264,-0.010103541,-0.00469791,0.999851053
1719786226,1719786225,574341624,0.003195793,-0.003195793,-0.001065264,0.225053809,0.014365137,9.825753516,1719786226,2146,1719786225,946244000,world,-2.074293869,-1.915799039,0.136629585,0.013158782,-0.010106676,-0.004682082,0.999851379
1719786226,1719786225,581855958,0,0.001065264,0,0.239418945,0.009576758,9.825753516,1719786226,2147,1719786225,955591000,world,-2.074288597,-1.915792636,0.136637052,0.013148892,-0.010073738,-0.004710363,0.999851708
1719786226,1719786225,589359828,0.002130529,-0.001065264,-0.001065264,0.239418945,0.004788379,9.816176758,1719786226,2148,1719786225,965303000,world,-2.074288341,-1.915798385,0.136621402,0.013157195,-0.010034071,-0.004737081,0.999851872
1719786226,1719786225,596836594,-0.001065264,0,-0.001065264,0.234630566,-0.004788379,9.825753516,1719786226,2149,1719786225,974767000,world,-2.074284595,-1.915812288,0.136595931,0.01312998,-0.010074141,-0.004716957,0.999851922
1719786226,1719786225,604346223,0.002130529,-0.001065264,0,0.239418945,0,9.820965137,1719786226,2150,1719786225,984562000,world,-2.07428408,-1.915810885,0.136598018,0.013152136,-0.010086561,-0.004712278,0.999851527
1719786226,1719786225,611860461,-0.002130529,-0.001065264,-0.001065264,0.225053809,0.009576758,9.825753516,1719786226,2151,1719786225,994907000,world,-2.074283371,-1.915788992,0.1366061,0.013123786,-0.010103605,-0.004710591,0.999851736
1719786226,1719786225,619339211,0,0.001065264,-0.002130529,0.215477051,0.009576758,9.820965137,1719786226,2152,1719786226,4961000,world,-2.074288461,-1.915777308,0.136634337,0.013105699,-0.010121066,-0.004681681,0.999851932
1719786226,1719786225,626936201,0.001065264,-0.002130529,0,0.215477051,-0.004788379,9.820965137,1719786226,2153,1719786226,14017000,world,-2.074292588,-1.915753539,0.136654904,0.013090903,-0.010094969,-0.004674982,0.999852421
1719786226,1719786225,636945595,-0.003195793,-0.002130529,-0.001065264,0.225053809,0.004788379,9.825753516,1719786226,2154,1719786226,25152000,world,-2.074299116,-1.915753841,0.136638244,0.013112823,-0.010138411,-0.004702078,0.999851567
1719786226,1719786225,644333146,0,0.001065264,-0.001065264,0.22026543,0.009576758,9.825753516,1719786226,2155,1719786226,34649000,world,-2.074285568,-1.915757537,0.136611141,0.013123799,-0.010184935,-0.004668536,0.999851108
1719786226,1719786225,651850999,0,-0.001065264,-0.004261058,0.229842188,0.004788379,9.816176758,1719786226,2156,1719786226,45032000,world,-2.074283966,-1.915754652,0.136616759,0.013122791,-0.010173672,-0.004672733,0.999851216
1719786226,1719786225,659318773,0.001065264,0.001065264,-0.001065264,0.225053809,0.009576758,9.816176758,1719786226,2157,1719786226,54903000,world,-2.074289572,-1.915755067,0.136605985,0.013139563,-0.010173685,-0.004691411,0.999850908
1719786226,1719786225,666821715,0.001065264,-0.003195793,-0.003195793,0.225053809,0,9.830541895,1719786226,2158,1719786226,63952000,world,-2.074284008,-1.915738983,0.136622635,0.013172546,-0.010138525,-0.004698637,0.999850797
1719786226,1719786225,674323473,0,0,0,0.22026543,0.004788379,9.811388379,1719786226,2159,1719786226,76480000,world,-2.074282665,-1.91576304,0.136659259,0.013139397,-0.010143413,-0.004706041,0.999851149
1719786226,1719786225,681833743,0,0,-0.001065264,0.225053809,0.004788379,9.820965137,1719786226,2160,1719786226,84709000,world,-2.074290581,-1.915761351,0.136642259,0.013133297,-0.01017421,-0.004679872,0.999851039
1719786226,1719786225,689320781,0.003195793,-0.002130529,-0.001065264,0.22026543,0.004788379,9.830541895,1719786226,2161,1719786226,93995000,world,-2.074282713,-1.915759362,0.136615504,0.013137352,-0.010184159,-0.004691909,0.999850828
1719786226,1719786225,696971562,-0.001065264,-0.001065264,0,0.215477051,0,9.825753516,1719786226,2162,1719786226,105525000,world,-2.074289571,-1.915767382,0.136619249,0.013177029,-0.010164598,-0.004706787,0.999850435
1719786226,1719786225,704325001,-0.002130529,-0.001065264,0,0.22026543,-0.004788379,9.820965137,1719786226,2163,1719786226,114052000,world,-2.074298045,-1.915769929,0.13662329,0.01313167,-0.010179818,-0.004687531,0.999850968
1719786226,1719786225,711832263,-0.001065264,0,-0.003195793,0.22026543,0.004788379,9.830541895,1719786226,2164,1719786226,124528000,world,-2.074295646,-1.915763321,0.136639646,0.013141489,-0.010116744,-0.004685784,0.999851487
1719786226,1719786225,719315621,0.001065264,-0.003195793,0,0.239418945,0,9.820965137,1719786226,2165,1719786226,134694000,world,-2.074289507,-1.915781714,0.136653619,0.013115643,-0.010171414,-0.004678642,0.999851305
1719786226,1719786225,726830051,-0.003195793,0.001065264,-0.001065264,0.234630566,0,9.8066,1719786226,2166,1719786226,144194000,world,-2.074293375,-1.915794121,0.13666241,0.013128466,-0.01013534,-0.004680745,0.999851493
1719786226,1719786225,734349280,0,-0.001065264,-0.001065264,0.239418945,0.009576758,9.820965137,1719786226,2167,1719786226,155536000,world,-2.074296423,-1.915769604,0.136638469,0.013123814,-0.010165347,-0.00467821,0.999851262
1719786226,1719786225,741842238,0.001065264,-0.001065264,-0.002130529,0.225053809,0.009576758,9.8066,1719786226,2168,1719786226,164232000,world,-2.074283126,-1.915742186,0.136630808,0.013136701,-0.010147513,-0.004700119,0.999851171
1719786226,1719786225,749321916,-0.002130529,0.002130529,-0.001065264,0.205900293,0.004788379,9.811388379,1719786226,2169,1719786226,175281000,world,-2.07427887,-1.915752481,0.136648112,0.013134868,-0.010132157,-0.004691232,0.999851392
1719786226,1719786225,756943514,0,-0.001065264,-0.001065264,0.225053809,-0.009576758,9.816176758,1719786226,2170,1719786226,184951000,world,-2.074279051,-1.915778046,0.136657192,0.013140314,-0.010120203,-0.004669277,0.999851545
1719786226,1719786225,764336152,-0.003195793,-0.001065264,-0.002130529,0.229842188,-0.004788379,9.811388379,1719786226,2171,1719786226,194169000,world,-2.074279179,-1.915798994,0.136643042,0.013110492,-0.010152091,-0.004673818,0.999851592
1719786226,1719786225,771832822,0.002130529,-0.003195793,0.001065264,0.229842188,0,9.811388379,1719786226,2172,1719786226,205213000,world,-2.074284973,-1.915795725,0.136644754,0.013131733,-0.010150583,-0.004673322,0.999851331
1719786226,1719786225,779340564,-0.001065264,0.003195793,-0.001065264,0.225053809,0.004788379,9.801811621,1719786226,2173,1719786226,214349000,world,-2.074281877,-1.915774165,0.136641535,0.01310662,-0.010126025,-0.004677433,0.99985189
1719786226,1719786225,786838962,0,-0.001065264,-0.001065264,0.229842188,0.004788379,9.811388379,1719786226,2174,1719786226,225331000,world,-2.074292421,-1.91575558,0.136627218,0.013150865,-0.010116051,-0.004674754,0.999851422
1719786226,1719786225,794309744,-0.001065264,-0.001065264,-0.003195793,0.239418945,0.004788379,9.820965137,1719786226,2175,1719786226,235449000,world,-2.074283276,-1.91574642,0.136616705,0.013121981,-0.010122844,-0.004697445,0.999851627
1719786226,1719786225,801842638,-0.001065264,-0.001065264,-0.001065264,0.248995703,0.004788379,9.820965137,1719786226,2176,1719786226,244200000,world,-2.074280703,-1.915781879,0.136613442,0.013134489,-0.010169357,-0.004679845,0.999851073
1719786226,1719786225,809332268,0.002130529,0.002130529,0,0.248995703,0.004788379,9.820965137,1719786226,2177,1719786226,254816000,world,-2.074275207,-1.915787877,0.136618614,0.013143244,-0.010146596,-0.004692254,0.999851131
1719786226,1719786225,816818121,0.001065264,-0.002130529,0.001065264,0.22026543,0,9.820965137,1719786226,2178,1719786226,264339000,world,-2.074275949,-1.915777194,0.136618831,0.013151054,-0.010126579,-0.004695427,0.999851216
1719786226,1719786225,824327079,0.002130529,-0.001065264,-0.002130529,0.225053809,0,9.825753516,1719786226,2179,1719786226,274629000,world,-2.074277215,-1.91578178,0.136628732,0.013124271,-0.010121365,-0.004689523,0.999851649
1719786226,1719786225,831806789,0.001065264,0,0,0.229842188,0.004788379,9.820965137,1719786226,2180,1719786226,284625000,world,-2.074287586,-1.915793989,0.136652744,0.01315823,-0.010118686,-0.004686391,0.999851244
1719786226,1719786225,839287843,-0.001065264,-0.001065264,-0.003195793,0.229842188,0,9.811388379,1719786226,2181,1719786226,294382000,world,-2.074294031,-1.915779161,0.13662162,0.01314613,-0.010144301,-0.004690964,0.999851123
1719786226,1719786225,846880961,-0.002130529,0,0,0.229842188,0,9.811388379,1719786226,2182,1719786226,304421000,world,-2.074288459,-1.915766368,0.136603159,0.013174845,-0.010109765,-0.004688636,0.999851105
1719786226,1719786225,854305023,-0.004261058,0,-0.004261058,0.234630566,0.004788379,9.816176758,1719786226,2183,1719786226,315509000,world,-2.074288997,-1.915779567,0.136638476,0.013145611,-0.010144427,-0.004671555,0.999851219
1719786226,1719786225,861824573,0,0,-0.002130529,0.239418945,0.009576758,9.825753516,1719786226,2184,1719786226,324900000,world,-2.074278903,-1.915761225,0.136646135,0.013152426,-0.010102266,-0.004669336,0.999851567
1719786226,1719786225,869293659,0,-0.002130529,-0.003195793,0.239418945,0.004788379,9.835330273,1719786226,2185,1719786226,334571000,world,-2.074273796,-1.91575488,0.136635986,0.013133229,-0.010145446,-0.004665612,0.999851399
1719786226,1719786225,876821689,-0.002130529,-0.002130529,0,0.239418945,-0.004788379,9.830541895,1719786226,2186,1719786226,344433000,world,-2.074280089,-1.915770947,0.136637651,0.013156742,-0.010119127,-0.004680924,0.999851285
1719786226,1719786225,884306807,0.001065264,-0.001065264,-0.004261058,0.225053809,0.004788379,9.825753516,1719786226,2187,1719786226,354435000,world,-2.074279852,-1.915775837,0.1366232,0.013148444,-0.0101354,-0.004651528,0.999851367
1719786226,1719786225,891806901,-0.002130529,0.001065264,-0.001065264,0.210688672,0.004788379,9.825753516,1719786226,2188,1719786226,365038000,world,-2.074288255,-1.915764953,0.136619283,0.013177991,-0.010158661,-0.004683256,0.999850593
1719786226,1719786225,899293203,-0.001065264,0.001065264,0.001065264,0.22026543,0.004788379,9.830541895,1719786226,2189,1719786226,378386000,world,-2.07427608,-1.915756197,0.136651902,0.01315966,-0.010142482,-0.004687298,0.99985098
1719786226,1719786225,906809264,-0.003195793,0,-0.002130529,0.225053809,0.014365137,9.835330273,1719786226,2190,1719786226,387720000,world,-2.074277928,-1.915750569,0.136664366,0.013162106,-0.010129122,-0.004689301,0.999851074
1719786226,1719786225,914305902,-0.001065264,0.004261058,-0.002130529,0.215477051,0.014365137,9.825753516,1719786226,2191,1719786226,396438000,world,-2.074279251,-1.915767005,0.136646928,0.013160635,-0.010119766,-0.004680457,0.99985123
1719786226,1719786225,921806284,0,0.001065264,-0.002130529,0.215477051,0.004788379,9.825753516,1719786226,2192,1719786226,405482000,world,-2.074276982,-1.915767362,0.136630227,0.01314274,-0.010134691,-0.004691125,0.999851264
1719786226,1719786225,929294858,0.001065264,0,-0.003195793,0.229842188,0.004788379,9.816176758,1719786226,2193,1719786226,413919000,world,-2.074283305,-1.915796574,0.136622297,0.013148109,-0.010145364,-0.004669587,0.999851186
1719786226,1719786225,936839880,0,0,-0.001065264,0.229842188,0.004788379,9.816176758,1719786226,2194,1719786226,425065000,world,-2.0742914,-1.915786647,0.136629774,0.013155842,-0.010166217,-0.0047047,0.999850708
1719786226,1719786225,944294278,0.001065264,-0.004261058,-0.002130529,0.225053809,0.009576758,9.816176758,1719786226,2195,1719786226,434925000,world,-2.074297446,-1.915771683,0.136642038,0.013172482,-0.010108891,-0.004691334,0.999851133
1719786226,1719786225,951854724,0.001065264,-0.003195793,-0.001065264,0.196323535,0.004788379,9.820965137,1719786226,2196,1719786226,445072000,world,-2.074290346,-1.91578773,0.136623871,0.013153589,-0.010130106,-0.004693987,0.999851154
1719786226,1719786225,959362881,0.002130529,-0.002130529,-0.001065264,0.205900293,0.009576758,9.825753516,1719786226,2197,1719786226,454888000,world,-2.074295397,-1.915800835,0.136637098,0.013110782,-0.010129434,-0.004715453,0.999851622
1719786226,1719786225,966811008,-0.001065264,0.002130529,-0.001065264,0.210688672,0.014365137,9.816176758,1719786226,2198,1719786226,464116000,world,-2.074300841,-1.91580889,0.136647308,0.013145093,-0.010142323,-0.004674477,0.999851233
1719786226,1719786225,974329565,-0.001065264,-0.002130529,-0.003195793,0.205900293,0.009576758,9.820965137,1719786226,2199,1719786226,476436000,world,-2.074283738,-1.915782949,0.136648101,0.013136608,-0.010113761,-0.004684322,0.999851588
1719786226,1719786225,981825147,-0.002130529,-0.001065264,0,0.225053809,0.009576758,9.820965137,1719786226,2200,1719786226,484454000,world,-2.074283057,-1.915761564,0.136633643,0.013136222,-0.010102051,-0.004704008,0.999851619
1719786226,1719786225,989302233,-0.002130529,-0.001065264,-0.003195793,0.229842188,0.004788379,9.8066,1719786226,2201,1719786226,494024000,world,-2.074285628,-1.915769791,0.136638102,0.013161144,-0.010061657,-0.004691211,0.999851759
1719786226,1719786225,997181174,-0.002130529,-0.003195793,-0.004261058,0.225053809,0.009576758,9.8066,1719786226,2202,1719786226,505870000,world,-2.07429363,-1.915800125,0.136653227,0.013119808,-0.010110308,-0.004691941,0.999851808
1719786226,1719786226,4332213,0,-0.002130529,0.001065264,0.234630566,0,9.820965137,1719786226,2203,1719786226,514213000,world,-2.074294253,-1.915811549,0.136665031,0.013123589,-0.010102799,-0.004691836,0.999851835
1719786226,1719786226,11814806,0.001065264,0,-0.002130529,0.234630566,0,9.811388379,1719786226,2204,1719786226,525778000,world,-2.074285351,-1.915796628,0.136658381,0.013130575,-0.010109687,-0.004696598,0.999851651
1719786226,1719786226,19372181,-0.003195793,-0.001065264,0,0.225053809,0,9.816176758,1719786227,2205,1719786226,534113000,world,-2.074285679,-1.915781931,0.136637223,0.013136961,-0.010108365,-0.004703709,0.999851547
1719786226,1719786226,26814102,-0.002130529,0.001065264,-0.001065264,0.215477051,0.004788379,9.816176758,1719786227,2206,1719786226,544154000,world,-2.074295711,-1.915792817,0.136639216,0.013122112,-0.010102396,-0.004679705,0.999851915
1719786226,1719786226,34308438,0.001065264,-0.003195793,0.002130529,0.22026543,0.009576758,9.801811621,1719786227,2207,1719786226,555961000,world,-2.074290034,-1.915792272,0.136662288,0.0131678,-0.010086874,-0.004697198,0.999851389
1719786226,1719786226,41813622,0,0.001065264,-0.005326322,0.229842188,0.009576758,9.816176758,1719786227,2208,1719786226,564171000,world,-2.074282344,-1.915784806,0.13667295,0.013123371,-0.010094862,-0.004688967,0.999851931
1719786226,1719786226,49297942,-0.001065264,-0.003195793,-0.001065264,0.229842188,0.009576758,9.820965137,1719786227,2209,1719786226,574988000,world,-2.074283856,-1.915793698,0.136672778,0.013131198,-0.010151994,-0.004694534,0.999851224
1719786226,1719786226,56820054,-0.001065264,-0.001065264,0,0.22026543,0.004788379,9.825753516,1719786227,2210,1719786226,584929000,world,-2.074291885,-1.915794198,0.136666105,0.013116285,-0.010102918,-0.004690237,0.999851937
1719786226,1719786226,64288182,0,-0.001065264,-0.001065264,0.22026543,-0.009576758,9.801811621,1719786227,2211,1719786226,594102000,world,-2.074292072,-1.915795691,0.136654745,0.013150776,-0.010114614,-0.004709727,0.999851274
1719786226,1719786226,71793430,0,0.001065264,0.002130529,0.229842188,0,9.825753516,1719786227,2212,1719786226,605387000,world,-2.074286802,-1.915807876,0.136663899,0.013162164,-0.010116535,-0.004689382,0.9998512
1719786226,1719786226,79350966,-0.001065264,0,0,0.229842188,0,9.825753516,1719786227,2213,1719786226,614191000,world,-2.074296106,-1.915815663,0.136682994,0.013114897,-0.010156067,-0.004704568,0.999851349
1719786226,1719786226,86858741,0.001065264,-0.001065264,0,0.239418945,0.004788379,9.830541895,1719786227,2214,1719786226,628249000,world,-2.074296741,-1.915804513,0.136677714,0.013139471,-0.010126806,-0.004698372,0.999851353
1719786226,1719786226,94287830,-0.002130529,0,0,0.234630566,0,9.820965137,1719786227,2215,1719786226,637753000,world,-2.074295382,-1.915766058,0.13668297,0.013140033,-0.01012109,-0.004698456,0.999851403
1719786226,1719786226,101786070,0.001065264,-0.001065264,0,0.22026543,0.004788379,9.820965137,1719786227,2216,1719786226,645509000,world,-2.074282571,-1.915764869,0.13669644,0.013092974,-0.010109672,-0.00469176,0.999852167
1719786226,1719786226,109302038,0.001065264,-0.001065264,-0.001065264,0.225053809,0.004788379,9.835330273,1719786227,2217,1719786226,654222000,world,-2.074287948,-1.915778335,0.136700023,0.013131214,-0.01010429,-0.004696411,0.999851698
1719786226,1719786226,116786902,0.001065264,-0.004261058,0.001065264,0.22026543,0.004788379,9.830541895,1719786227,2218,1719786226,668742000,world,-2.074295643,-1.915779071,0.136694067,0.013166027,-0.010109724,-0.004696593,0.999851185
1719786226,1719786226,124289590,0.001065264,-0.001065264,-0.003195793,0.229842188,0.019153516,9.816176758,1719786227,2219,1719786226,676752000,world,-2.074294431,-1.91578428,0.136698089,0.013171484,-0.010109214,-0.004676872,0.99985121
1719786226,1719786226,131767638,0,-0.002130529,0.001065264,0.225053809,0.023941895,9.830541895,1719786227,2220,1719786226,685220000,world,-2.074289976,-1.915765719,0.136685242,0.013155939,-0.010084632,-0.004705684,0.999851528
1719786226,1719786226,139282774,0,-0.001065264,-0.001065264,0.229842188,0.014365137,9.825753516,1719786227,2221,1719786226,694541000,world,-2.074275342,-1.915737795,0.136655026,0.013193147,-0.010101127,-0.004675514,0.999851013
1719786226,1719786226,146762134,-0.001065264,-0.002130529,0,0.22026543,0.019153516,9.811388379,1719786227,2222,1719786226,704480000,world,-2.074281499,-1.915751084,0.136642521,0.013139963,-0.010062233,-0.004686595,0.999852053
1719786226,1719786226,154267126,-0.001065264,0,0.002130529,0.225053809,0.009576758,9.801811621,1719786227,2223,1719786226,715337000,world,-2.07428399,-1.91577172,0.136662793,0.013140011,-0.010144485,-0.004687603,0.999851217
1719786226,1719786226,161781494,0.001065264,-0.001065264,-0.001065264,0.225053809,-0.004788379,9.8066,1719786227,2224,1719786226,724022000,world,-2.074285177,-1.915792023,0.136685538,0.013137989,-0.01017372,-0.004708829,0.999850847
1719786226,1719786226,169260310,-0.002130529,-0.002130529,-0.003195793,0.229842188,-0.004788379,9.825753516,1719786227,2225,1719786226,735019000,world,-2.074293394,-1.915788586,0.136664376,0.013151847,-0.010162363,-0.004706252,0.999850792
1719786226,1719786226,176772150,0,-0.002130529,0,0.229842188,0.004788379,9.816176758,1719786227,2226,1719786226,744477000,world,-2.074294683,-1.915797821,0.136671002,0.013099855,-0.010116952,-0.004685559,0.999852032
1719786226,1719786226,184267222,-0.002130529,0,0,0.225053809,0.004788379,9.820965137,1719786227,2227,1719786226,754861000,world,-2.074293924,-1.915804178,0.136657525,0.013108787,-0.01010199,-0.004678681,0.999852099
1719786226,1719786226,191772054,0.002130529,0,-0.002130529,0.225053809,0,9.820965137,1719786227,2228,1719786226,765031000,world,-2.074283897,-1.9157862,0.136636845,0.013131031,-0.010096017,-0.004694615,0.999851793
1719786226,1719786226,199252246,0.001065264,-0.001065264,-0.001065264,0.234630566,-0.004788379,9.825753516,1719786227,2229,1719786226,774754000,world,-2.074281187,-1.915794268,0.136645183,0.013074754,-0.010145543,-0.004691342,0.999852044
1719786226,1719786226,206753110,0,0,-0.001065264,0.225053809,0,9.825753516,1719786227,2230,1719786226,784836000,world,-2.074291464,-1.915804784,0.136661324,0.013115393,-0.010174284,-0.00470342,0.999851163
1719786226,1719786226,214268022,-0.002130529,-0.002130529,-0.001065264,0.239418945,0.004788379,9.820965137,1719786227,2231,1719786226,794729000,world,-2.074273165,-1.915789469,0.136646256,0.013124165,-0.010154985,-0.004701255,0.999851254
1719786226,1719786226,221766838,0,0.002130529,-0.002130529,0.244207324,0.004788379,9.816176758,1719786227,2232,1719786226,805266000,world,-2.074266848,-1.915784982,0.136646436,0.013143432,-0.010157843,-0.004708125,0.99985094
1719786226,1719786226,229274582,-0.001065264,-0.004261058,-0.001065264,0.244207324,0.009576758,9.820965137,1719786227,2233,1719786226,814022000,world,-2.074269138,-1.915781622,0.136665694,0.013175786,-0.010151645,-0.004706844,0.999850583
1719786226,1719786226,239301419,-0.002130529,0.002130529,-0.001065264,0.22026543,0.009576758,9.820965137,1719786227,2234,1719786226,824972000,world,-2.074271394,-1.915759852,0.136669433,0.013169808,-0.010123808,-0.004711158,0.999850924
1719786226,1719786226,246763979,-0.001065264,-0.004261058,0.001065264,0.22026543,0.009576758,9.820965137,1719786227,2235,1719786226,834684000,world,-2.074274485,-1.915768424,0.136655714,0.013156729,-0.010131012,-0.004714858,0.999851005
1719786226,1719786226,254265163,-0.001065264,0.001065264,0,0.225053809,0.004788379,9.840118652,1719786227,2236,1719786226,844798000,world,-2.074272409,-1.915782609,0.136649022,0.013132852,-0.010133868,-0.00470545,0.999851335
1719786226,1719786226,261773195,0,-0.002130529,0,0.234630566,0.004788379,9.830541895,1719786227,2237,1719786226,855341000,world,-2.074264384,-1.915787304,0.136646823,0.013127302,-0.01012887,-0.004716648,0.999851406
1719786226,1719786226,269268459,-0.001065264,-0.002130529,-0.002130529,0.239418945,0,9.816176758,1719786227,2238,1719786226,868907000,world,-2.074267087,-1.915753206,0.136640216,0.013132937,-0.010140107,-0.004713191,0.999851234
1719786226,1719786226,276758635,-0.001065264,-0.002130529,-0.002130529,0.234630566,0,9.825753516,1719786227,2239,1719786226,878407000,world,-2.074270683,-1.9157653,0.136674309,0.01313208,-0.010132901,-0.00469966,0.999851382
1719786226,1719786226,284266699,0.001065264,0,-0.002130529,0.22026543,-0.004788379,9.820965137,1719786227,2240,1719786226,885808000,world,-2.074283765,-1.915798715,0.1367003,0.013154705,-0.010130235,-0.004697043,0.999851124
1719786226,1719786226,291770859,0,-0.004261058,0,0.225053809,0.004788379,9.811388379,1719786227,2241,1719786226,894906000,world,-2.074279757,-1.915804144,0.13668178,0.013122557,-0.010157912,-0.00468938,0.999851301
1719786226,1719786226,299257260,-0.002130529,-0.003195793,0,0.229842188,0.004788379,9.825753516,1719786227,2242,1719786226,905093000,world,-2.074278304,-1.915768256,0.136646954,0.013141194,-0.010154224,-0.00470064,0.999851041
1719786226,1719786226,306740812,-0.001065264,-0.002130529,-0.003195793,0.234630566,0.009576758,9.820965137,1719786227,2243,1719786226,914090000,world,-2.074275513,-1.915750916,0.136638121,0.013161949,-0.010115031,-0.004701803,0.99985116
1719786226,1719786226,314241132,0,0,-0.003195793,0.234630566,0.009576758,9.835330273,1719786227,2244,1719786226,926035000,world,-2.074287877,-1.915766295,0.136661781,0.01316722,-0.010128962,-0.004685269,0.999851027
1719786226,1719786226,321747468,-0.001065264,-0.001065264,0,0.225053809,0,9.830541895,1719786227,2245,1719786226,934804000,world,-2.074290008,-1.915785862,0.136686397,0.013102033,-0.010155198,-0.004688468,0.999851602
1719786226,1719786226,329254092,-0.001065264,-0.002130529,0,0.22026543,0.004788379,9.825753516,1719786227,2246,1719786226,944086000,world,-2.074295966,-1.91579939,0.13670252,0.013098979,-0.010116985,-0.004686497,0.999852039
1719786226,1719786226,336757420,-0.001065264,-0.001065264,-0.002130529,0.234630566,0.004788379,9.820965137,1719786227,2247,1719786226,955965000,world,-2.074291458,-1.91579702,0.136689938,0.013151025,-0.0101361,-0.00468988,0.999851146
1719786226,1719786226,344241420,0,-0.001065264,-0.001065264,0.22026543,0.009576758,9.816176758,1719786227,2248,1719786226,964378000,world,-2.074273129,-1.915752858,0.136668722,0.013125698,-0.010176968,-0.004695914,0.999851036
1719786226,1719786226,351743820,-0.001065264,-0.003195793,-0.002130529,0.234630566,0.009576758,9.816176758,1719786227,2249,1719786226,974799000,world,-2.074266967,-1.915737571,0.136679232,0.013139662,-0.010118151,-0.004711176,0.999851378
1719786226,1719786226,359302955,-0.002130529,0,-0.002130529,0.225053809,0.004788379,9.8066,1719786227,2250,1719786226,984914000,world,-2.074280536,-1.915761222,0.136682472,0.013132393,-0.0101284,-0.004696509,0.999851438
1719786226,1719786226,366760044,0,-0.002130529,0,0.225053809,0.014365137,9.811388379,1719786227,2251,1719786226,994146000,world,-2.074284809,-1.91579084,0.136682851,0.013136381,-0.010127922,-0.004705263,0.99985135
1719786226,1719786226,374230252,-0.001065264,-0.002130529,-0.002130529,0.22026543,0.004788379,9.811388379,1719786227,2252,1719786227,5466000,world,-2.074275505,-1.915793214,0.136667184,0.013134235,-0.010137651,-0.004668125,0.999851453
1719786226,1719786226,381764396,0,-0.001065264,0.001065264,0.205900293,0,9.820965137,1719786227,2253,1719786227,14437000,world,-2.074278243,-1.915785631,0.136667465,0.013150493,-0.010105729,-0.004687802,0.999851471
1719786226,1719786226,389236684,-0.001065264,0,0,0.22026543,0,9.811388379,1719786227,2254,1719786227,24599000,world,-2.074279087,-1.915762208,0.136680787,0.013155982,-0.010110644,-0.004700926,0.999851287
1719786226,1719786226,396765548,0,-0.004261058,0.001065264,0.225053809,0,9.816176758,1719786227,2255,1719786227,35241000,world,-2.074276536,-1.915761345,0.136685359,0.013178817,-0.010087814,-0.004704326,0.999851201
1719786226,1719786226,404235340,-0.003195793,-0.001065264,0.001065264,0.22026543,0,9.825753516,1719786227,2256,1719786227,44166000,world,-2.074282957,-1.915781027,0.136688556,0.013151733,-0.010113222,-0.004690595,0.999851365
1719786226,1719786226,411738828,0,0,-0.005326322,0.225053809,-0.004788379,9.825753516,1719786227,2257,1719786227,54501000,world,-2.074278025,-1.915780425,0.136684408,0.013163562,-0.010141682,-0.004678074,0.99985098
1719786226,1719786226,419292780,0,-0.001065264,-0.002130529,0.234630566,0,9.825753516,1719786227,2258,1719786227,64288000,world,-2.074274274,-1.91576342,0.136655846,0.013148065,-0.010134244,-0.004685053,0.999851227
1719786226,1719786226,426744076,0,-0.002130529,-0.002130529,0.210688672,0.009576758,9.825753516,1719786227,2259,1719786227,74697000,world,-2.074273421,-1.915754791,0.136667375,0.013160544,-0.010107095,-0.004700062,0.999851267
1719786226,1719786226,434232748,0.002130529,0,-0.001065264,0.215477051,0.009576758,9.825753516,1719786227,2260,1719786227,84553000,world,-2.074275485,-1.915762133,0.136682184,0.013152929,-0.01014391,-0.004690273,0.99985104
1719786226,1719786226,441740908,-0.001065264,-0.001065264,-0.001065264,0.215477051,0.004788379,9.830541895,1719786227,2261,1719786227,94472000,world,-2.074282316,-1.915771946,0.136676564,0.013154431,-0.010149804,-0.004681573,0.999851002
1719786226,1719786226,449236396,-0.001065264,0.002130529,-0.003195793,0.234630566,0,9.811388379,1719786227,2262,1719786227,104786000,world,-2.074279794,-1.915777825,0.136675732,0.013158874,-0.010134207,-0.004670501,0.999851153
1719786226,1719786226,456783276,0.005326322,-0.001065264,0.002130529,0.215477051,0,9.811388379,1719786227,2263,1719786227,114572000,world,-2.074275546,-1.915762357,0.136673533,0.013147484,-0.010134211,-0.004689106,0.999851216
1719786226,1719786226,464235660,0,-0.002130529,-0.002130529,0.205900293,0.004788379,9.816176758,1719786227,2264,1719786227,124303000,world,-2.074287106,-1.915761307,0.136684878,0.013155037,-0.010122883,-0.004695612,0.999851201
1719786226,1719786226,471743948,0.001065264,-0.002130529,0,0.22026543,0.004788379,9.811388379,1719786227,2265,1719786227,134381000,world,-2.074279605,-1.915746314,0.136690342,0.013153834,-0.010106832,-0.004698891,0.999851363
1719786226,1719786226,479233132,-0.002130529,0.002130529,0.001065264,0.225053809,0.004788379,9.811388379,1719786227,2266,1719786227,144497000,world,-2.074277553,-1.915732038,0.136680251,0.013155742,-0.010094746,-0.004706246,0.999851426
1719786226,1719786226,486761100,0,-0.002130529,0,0.229842188,0.009576758,9.811388379,1719786227,2267,1719786227,155101000,world,-2.074285687,-1.915766915,0.136679932,0.013139326,-0.010113609,-0.004687961,0.999851537
1719786226,1719786226,494237772,-0.001065264,-0.001065264,-0.001065264,0.229842188,0,9.816176758,1719786227,2268,1719786227,164251000,world,-2.07428797,-1.915780187,0.136681431,0.013117995,-0.010143577,-0.004666895,0.999851612
1719786227,1719786226,501731180,0.001065264,-0.002130529,-0.002130529,0.234630566,0.004788379,9.816176758,1719786227,2269,1719786227,174394000,world,-2.074294788,-1.915785309,0.136691083,0.013144857,-0.010122836,-0.004693661,0.999851344
1719786227,1719786226,509305516,0.002130529,-0.003195793,-0.002130529,0.234630566,0.004788379,9.811388379,1719786227,2270,1719786227,184372000,world,-2.074296869,-1.915779774,0.136695066,0.013142834,-0.010102819,-0.004686762,0.999851606
1719786227,1719786226,516729004,-0.001065264,-0.002130529,0,0.234630566,0.004788379,9.816176758,1719786227,2271,1719786227,195000000,world,-2.074287886,-1.915756747,0.136680345,0.013122992,-0.010119793,-0.004702994,0.999851618
